[
  {
    "id": "966",
    "name": "1 Arena Twu (24 hrs)",
    "street": "No 3 (GF) Lot A3, 1 Arena Pusat Komersil BDC, KM 5, Jalan Datuk Chong Thien Vun",
    "city": "Tawau",
    "state": "Sabah",
    "postcode": "91000",
    "latitude": 4.258608,
    "longitude": 117.919224,
    "category": "7-Eleven Store"
  },
  {
    "id": "2068",
    "name": "1 Petaling Sg Besi",
    "street": "No G-3 (GF), Pangsapuri 1 Petaling, Jalan 1C/149",
    "city": "Jalan Sungai Besi",
    "state": "Kuala Lumpur",
    "postcode": "57100",
    "latitude": 3.0682,
    "longitude": 101.705595,
    "category": "7-Eleven Store"
  },
  {
    "id": "1009",
    "name": "101 Mall Puchong",
    "street": "Lot G 005A, IOI Mall Bt 9, Jalan Puchong",
    "city": "Puchong",
    "state": "Selangor",
    "postcode": "47170",
    "latitude": 3.043998,
    "longitude": 101.618431,
    "category": "7-Eleven Store"
  },
  {
    "id": "2639",
    "name": "138 Jalan Imbi KL (24 hrs)",
    "street": "No 138 (GF)",
    "city": "Jalan Imbi",
    "state": "Kuala Lumpur",
    "postcode": "55100",
    "latitude": 3.145618,
    "longitude": 101.714845,
    "category": [
      "7-Eleven Store",
      "ATM Available"
    ]
  },
  {
    "id": "2644",
    "name": "19 Digital Mall SJ",
    "street": "Lot No G-29 (GF), Nineteen Digital Mall, Jalan Persiaran Kewajipan, USJ 19",
    "city": "Subang Jaya",
    "state": "Selangor",
    "postcode": "47620",
    "latitude": 3.033204,
    "longitude": 101.588798,
    "category": "7-Eleven Store"
  },
  {
    "id": "1222",
    "name": "1st Avenue PG (24 hrs)",
    "street": "2-13A, 2nd Floor, 1st Avenue, 182",
    "city": "Jalan Magazine",
    "state": "Penang",
    "postcode": "10300",
    "latitude": 5.413689,
    "longitude": 100.33113,
    "category": "7-Eleven Store"
  },
  {
    "id": "1698",
    "name": "3 Element Seri Kembangan SEL (24 hrs)",
    "street": "No 07-G, 3 Element, Persiaran Putra Permai Selesa, Pusat Bandar Putra Permai",
    "city": "Seri Kembangan",
    "state": "Selangor",
    "postcode": "43300",
    "latitude": 2.9831131,
    "longitude": 101.6671371,
    "category": "7-Eleven Store"
  },
  {
    "id": "2192",
    "name": "3rd Mile Bazaar KCH (24 hrs)",
    "street": "No 51 (GF), Lot 1021, Jalan Rock, 3rd Miles Bazaar",
    "city": "Kuching",
    "state": "Sarawak",
    "postcode": "93250",
    "latitude": 1.519232,
    "longitude": 110.334261,
    "category": "7-Eleven Store"
  },
  {
    "id": "1697",
    "name": "7CAFE TMN. PENYU PP (24 hrs)",
    "street": "No 1412, Jalan Besar, Taman Penyu",
    "city": "Sungai Bakap",
    "state": "Penang",
    "postcode": "14200",
    "latitude": 5.2150978,
    "longitude": 100.4972652,
    "category": "7-Eleven Store"
  },
  {
    "id": "272",
    "name": "7CAFE UniMAP PEL (24 hrs)",
    "street": "46-G, Jalan MU Satu, Medan Universiti Ulu Pauh",
    "city": "Arau",
    "state": "Perlis",
    "postcode": "2600",
    "latitude": 6.52496,
    "longitude": 100.314,
    "category": "CAFE by 7-Eleven"
  },
  {
    "id": "1991",
    "name": "7th Mile Bazaar KCH",
    "street": "SL 46A (GF), Jalan Penrissen, 7ML Bazaar",
    "city": "Kuching",
    "state": "Sarawak",
    "postcode": "93250",
    "latitude": 1.469668,
    "longitude": 110.329629,
    "category": "7-Eleven Store"
  },
  {
    "id": "935",
    "name": "Adika Commercial KGU",
    "street": "Lot 36, Ground Floor, Adika Commercial Complex, Jalan Masak",
    "city": "Keningau",
    "state": "Sabah",
    "postcode": "89000",
    "latitude": 5.33515,
    "longitude": 116.150092,
    "category": "7-Eleven Store"
  },
  {
    "id": "922",
    "name": "Adnan Shop Com KGU",
    "street": "Lot 18 (GF), Adnan Shopping Complex, Jalan Bariawa Laut",
    "city": "Keningau",
    "state": "Sabah",
    "postcode": "89000",
    "latitude": 5.339629,
    "longitude": 116.15373,
    "category": "7-Eleven Store"
  },
  {
    "id": "1561",
    "name": "Afiniti Residence, Johor",
    "street": "LG 1-02 Afiniti Residences, No 5 Jalan Medini Utara 4, Medini Iskandrar",
    "city": "Nusajaya",
    "state": "Johor",
    "postcode": "79200",
    "latitude": 1.4275493,
    "longitude": 103.6342961,
    "category": "7-Eleven Store"
  },
  {
    "id": "694",
    "name": "Air Hitam, JB",
    "street": "Lot 773 (GF), Jalan Batu Pahat",
    "city": "Ayer Hitam",
    "state": "Johor",
    "postcode": "86100",
    "latitude": 1.917263,
    "longitude": 103.179444,
    "category": "7-Eleven Store"
  },
  {
    "id": "217",
    "name": "Airport Sport Nilai N9 (24 hrs)",
    "street": "PT 22318, Lot No 1 (GF), Jalan Kolej, Desa Kolej, Putra Nilai",
    "city": "Nilai",
    "state": "Negeri Sembilan",
    "postcode": "71800",
    "latitude": 2.8152331,
    "longitude": 101.7758826,
    "category": "CAFE by 7-Eleven"
  },
  {
    "id": "1741",
    "name": "Al-Bayt Square Miri SWK",
    "street": "Lot 3531 (GF), Al – Bayt Square, Jalan Miri Pujut",
    "city": "Miri",
    "state": "Sarawak",
    "postcode": "98000",
    "latitude": 4.412939,
    "longitude": 114.010261,
    "category": "7-Eleven Store"
  },
  {
    "id": "2413",
    "name": "Alam Avenue Sek16 SA",
    "street": "No A-2-G (GF), Jalan Serai Wangi F16/F, Alam Avenue, Persiaran Selangor, Seksyen 16",
    "city": "Shah Alam",
    "state": "Selangor",
    "postcode": "40200",
    "latitude": 3.057604,
    "longitude": 101.49164,
    "category": "7-Eleven Store"
  },
  {
    "id": "1873",
    "name": "Alam Budiman, Shah Alam (24 hrs)",
    "street": "No 33 (GF) Jalan Pulau Lumut P U10/P, Taman Alam Budiman",
    "city": "Shah Alam",
    "state": "Selangor",
    "postcode": "40150",
    "latitude": 3.144501,
    "longitude": 101.481512,
    "category": [
      "7-Eleven Store",
      "ATM Available"
    ]
  },
  {
    "id": "1814",
    "name": "Alam Idaman Apmnt, SA",
    "street": "G-10, Alam Idaman Apartment, No 2, Jalan Budiman 22/3",
    "city": "Shah Alam",
    "state": "Selangor",
    "postcode": "40300",
    "latitude": 3.066906,
    "longitude": 101.554586,
    "category": "7-Eleven Store"
  },
  {
    "id": "458",
    "name": "Alam Jaya Kajang",
    "street": "No. 36 Jalan Alam Jaya 15, Taman Aman Jaya, Batu 9 Cheras",
    "city": "Kajang",
    "state": "Selangor",
    "postcode": "43200",
    "latitude": 3.080411,
    "longitude": 101.764925,
    "category": [
      "7-Eleven Store",
      "ATM Available"
    ]
  },
  {
    "id": "2189",
    "name": "Alamanda Sik Kedah (24 hrs)",
    "street": "No. 4 (GF), Susur Alamanda 2, Pusat Perniagaan Alamanda",
    "city": "Sik",
    "state": "Kedah",
    "postcode": "8200",
    "latitude": 5.815314,
    "longitude": 100.740163,
    "category": "7-Eleven Store"
  },
  {
    "id": "982",
    "name": "ALAMESRA KOTA KINABALU,SABAH (24 hrs)",
    "street": "Lot 18 (GF), Block B, Lorong Plaza Permai 1, Alamesra PH 1, Jalan Sulaman",
    "city": "Kota Kinabalu",
    "state": "Sabah",
    "postcode": "88450",
    "latitude": 6.0326737,
    "longitude": 116.1316708,
    "category": "7-Eleven Store"
  },
  {
    "id": "553",
    "name": "Alma Bkt Mertajam Pg (24 hrs)",
    "street": "No 3091 (GF) Jalan Rozhan, Taman Rozhan Alma",
    "city": "Bukit Mertajam",
    "state": "Penang",
    "postcode": "1400",
    "latitude": 5.332547,
    "longitude": 100.480882,
    "category": "7-Eleven Store"
  },
  {
    "id": "2202",
    "name": "Alma II BM PG (24 hrs)",
    "street": "No 9 (GF), Jalan Perniagaan, Pusat Perniagaan Alma",
    "city": "Bukit Mertajam",
    "state": "Penang",
    "postcode": "14000",
    "latitude": 5.33005,
    "longitude": 100.47699,
    "category": "7-Eleven Store"
  },
  {
    "id": "247",
    "name": "Alor Lintang Trg (24 hrs)",
    "street": "Lot 2667 (GF), Jalan Amir Alor Lintang II, Taman Muji",
    "city": "Kampung Raja",
    "state": "Terengganu",
    "postcode": "22200",
    "latitude": 5.7781226,
    "longitude": 102.5478515,
    "category": "CAFE by 7-Eleven"
  },
  {
    "id": "2460",
    "name": "Alor Mengkudu AS Kdh (24 hrs)",
    "street": "No 4 (GF), Kompleks Perniagaan Taman Saga, Jalan Alor Mengkudu",
    "city": "Alor Setar",
    "state": "Kedah",
    "postcode": "5400",
    "latitude": 6.094713,
    "longitude": 100.379947,
    "category": "7-Eleven Store"
  },
  {
    "id": "1396",
    "name": "Alsagoff Pontian Joh",
    "street": "No 280, Ground Floor, Jalan Alsagoff",
    "city": "Pontian",
    "state": "Johor",
    "postcode": "82000",
    "latitude": 1.485892,
    "longitude": 103.389282,
    "category": "7-Eleven Store"
  },
  {
    "id": "1889",
    "name": "Aman Central A. Setar (24 hrs)",
    "street": "Unit No. G-09, Ground Floor, Aman Central",
    "city": "Alor Setar",
    "state": "Kedah",
    "postcode": "5000",
    "latitude": 6.1248416,
    "longitude": 100.366019,
    "category": "7-Eleven Store"
  },
  {
    "id": "2078",
    "name": "Aman Perdana Klang (24 hrs)",
    "street": "No 47 (GF) Jalan Aman Perdana 10C/KU5, Taman Aman Perdana",
    "city": "Klang",
    "state": "Selangor",
    "postcode": "40150",
    "latitude": 3.093205,
    "longitude": 101.408231,
    "category": "7-Eleven Store"
  },
  {
    "id": "441",
    "name": "Aman Puri Kepong (24 hrs)",
    "street": "No. 1-33A-A (GF), Jalan Desa 1/3, Aman Puri",
    "city": "Kepong",
    "state": "Kuala Lumpur",
    "postcode": "52100",
    "latitude": 3.211531,
    "longitude": 101.615837,
    "category": [
      "7-Eleven Store",
      "ATM Available"
    ]
  },
  {
    "id": "1731",
    "name": "Aman Square Sg Petani KDH (24 hrs)",
    "street": "No 2 (GF), Aman Square Jalan Kuala Ketil",
    "city": "Sungai Petani",
    "state": "Kedah",
    "postcode": "8000",
    "latitude": 5.6347082,
    "longitude": 100.5140072,
    "category": "7-Eleven Store"
  },
  {
    "id": "663",
    "name": "Aman Suria PJ",
    "street": "No. B-G-16 (GF), Jalan PJU 1/43, Taman Aman Suria,",
    "city": "Petaling Jaya",
    "state": "Selangor",
    "postcode": "47301",
    "latitude": 3.122034,
    "longitude": 101.59527,
    "category": "7-Eleven Store"
  },
  {
    "id": "1170",
    "name": "Amanjaya Mall KED",
    "street": "Lot G15B, Ground Floor, No 1, Jalan Jati 1, Kompleks Amanjaya",
    "city": "Sungai Petani",
    "state": "Kedah",
    "postcode": "8000",
    "latitude": 5.673552,
    "longitude": 100.508928,
    "category": "7-Eleven Store"
  },
  {
    "id": "1709",
    "name": "AMBER QUAYSIDE SEL (24 hrs)",
    "street": "Ground Floor Unit 2 (GF-02), Quayside Shoppes @ Twentyfive.7, Persiaran Oleander, Gamuda Kemuning 25.7",
    "city": "Telok Panglima Garang",
    "state": "Selangor",
    "postcode": "42500",
    "latitude": 2.9550513,
    "longitude": 101.5517824,
    "category": "7-Eleven Store"
  },
  {
    "id": "392",
    "name": "Ambong Kepong",
    "street": "No 11 (GF), Jalan Ambong Kiri 2",
    "city": "Kepong Baru",
    "state": "Kuala Lumpur",
    "postcode": "51200",
    "latitude": 3.210226,
    "longitude": 101.647398,
    "category": "7-Eleven Store"
  },
  {
    "id": "1720",
    "name": "Amerin Hotel, Tmn Perling JB JOH",
    "street": "Lot G-03, Ground Floor, Amerin Hotel, No. 35, Jalan Persisiran Perling 1, Taman Perling",
    "city": "Johor Bahru",
    "state": "Johor",
    "postcode": "81200",
    "latitude": 1.496814,
    "longitude": 103.682841,
    "category": "7-Eleven Store"
  },
  {
    "id": "1516",
    "name": "Amerin Mall, Seri Kembangan (24hrs)",
    "street": "No. G-10, Ground Floor, The Amerin Mall, Jalan Impian Indah, Taman Impian Indah",
    "city": "Seri Kembangan",
    "state": "Selangor",
    "postcode": "43300",
    "latitude": 3.0249731,
    "longitude": 101.7511225,
    "category": "7-Eleven Store"
  },
  {
    "id": "1343",
    "name": "Ampang B. Centre Alor Setar KDH (24 hrs)",
    "street": "TG2 (GF), Kompleks Perniagaan Ampang, Lebuhraya Sultanah Bahiyah",
    "city": "Alor Setar",
    "state": "Kedah",
    "postcode": "5050",
    "latitude": 6.111827,
    "longitude": 100.351557,
    "category": "7-Eleven Store"
  },
  {
    "id": "2260",
    "name": "Ampang Baru PK (24 hrs)",
    "street": "No 9 (GF), Jalan Ampang Baru 6B, Ampang Baru New Village",
    "city": "Ipoh",
    "state": "Perak",
    "postcode": "31350",
    "latitude": 4.584689,
    "longitude": 101.126674,
    "category": "7-Eleven Store"
  },
  {
    "id": "445",
    "name": "Ampang Hilir (24hrs)",
    "street": "No. 55, Jalan Sulaiman 3, Taman Ampang Hilir",
    "city": "Ampang",
    "state": "Selangor",
    "postcode": "68000",
    "latitude": 3.150535,
    "longitude": 101.748467,
    "category": [
      "7-Eleven Store",
      "ATM Available"
    ]
  },
  {
    "id": "301",
    "name": "Ampang Jaya Sel (24hrs)",
    "street": "No. 18, Lorong Kerja Ayer Lama",
    "city": "Ampang",
    "state": "Selangor",
    "postcode": "68000",
    "latitude": 3.160793,
    "longitude": 101.758641,
    "category": "7-Eleven Store"
  },
  {
    "id": "423",
    "name": "Ampang Jln Wawasan (24hrs)",
    "street": "No 11G, Jalan Wawasan Ampang 2/3, Bandar Baru Ampang",
    "city": "Ampang",
    "state": "Selangor",
    "postcode": "68000",
    "latitude": 3.145653,
    "longitude": 101.767119,
    "category": "7-Eleven Store"
  },
  {
    "id": "20",
    "name": "Ampang Point, KL (24hrs)",
    "street": "No. 55, Jalan Mamanda 9",
    "city": "Taman Dato Razali",
    "state": "Selangor",
    "postcode": "68000",
    "latitude": 3.158987,
    "longitude": 101.751715,
    "category": "CAFE by 7-Eleven"
  },
  {
    "id": "111",
    "name": "Ampang Utama KL (24hrs)",
    "street": "No C-17 (GF), Jalan Ampang Utama 1/1, Taman Ampang Utama",
    "city": "Ampang",
    "state": "Selangor",
    "postcode": "68000",
    "latitude": 3.154387,
    "longitude": 101.751214,
    "category": "CAFE by 7-Eleven"
  },
  {
    "id": "393",
    "name": "Ampangan Sbn N9 (24 hrs)",
    "street": "No. 19 (GF), Bangunan Uda, Bandar Baru Ampangan, Batu 2 Jalan Kuala Pilah",
    "city": "Seremban",
    "state": "Negeri Sembilan",
    "postcode": "70400",
    "latitude": 2.723953,
    "longitude": 101.962738,
    "category": "7-Eleven Store"
  },
  {
    "id": "165",
    "name": "Angerik Perdana,KJG",
    "street": "No 13 (GF), Jalan Anggerik Perdana 1, Taman Anggerik Perdana",
    "city": "Semenyih",
    "state": "Selangor",
    "postcode": "43500",
    "latitude": 2.973719,
    "longitude": 101.824671,
    "category": "CAFE by 7-Eleven"
  },
  {
    "id": "2594",
    "name": "Anggerik Eria SA",
    "street": "No. 7 (GF), Jalan Anggerik Eria AU 31/AU, Kota Kemuning, Seksyen 31",
    "city": "Shah Alam",
    "state": "Selangor",
    "postcode": "40460",
    "latitude": 2.993318,
    "longitude": 101.531157,
    "category": "7-Eleven Store"
  },
  {
    "id": "262",
    "name": "Anggun City SEL (24 hrs)",
    "street": "No 19-1 (GF), Jalan Anggun City 1, Pusat Komersial Anggun City, Taman Anggun",
    "city": "Rawang",
    "state": "Selangor",
    "postcode": "48000",
    "latitude": 3.3174164,
    "longitude": 101.5360432,
    "category": "CAFE by 7-Eleven"
  },
  {
    "id": "215",
    "name": "Antara Gapi Serendah (24 hrs)",
    "street": "No. 1 (GF), Jalan Gapi 1A/3, Antara Gapi",
    "city": "Serendah",
    "state": "Selangor",
    "postcode": "48200",
    "latitude": 3.423097,
    "longitude": 101.627765,
    "category": "CAFE by 7-Eleven"
  },
  {
    "id": "919",
    "name": "Api-Api Centre KK (24 hrs)",
    "street": "No 3-0-7 (GF), Block 3, Api-Api Centre, Lebuhraya Pantai Baru",
    "city": "Kota Kinabalu",
    "state": "Sabah",
    "postcode": "88000",
    "latitude": 5.97524,
    "longitude": 116.070358,
    "category": "7-Eleven Store"
  },
  {
    "id": "893",
    "name": "Api-Api KK (24 hrs)",
    "street": "3-0-11, Lot 3G/11, Block 3, Lorong Api-Api, Api-Api Centre",
    "city": "Kota Kinabalu",
    "state": "Sabah",
    "postcode": "88000",
    "latitude": 5.975867,
    "longitude": 116.070025,
    "category": "7-Eleven Store"
  },
  {
    "id": "1247",
    "name": "Arc Ampang Ukay SEL (24hrs)",
    "street": "B2-14, Arc @ Ampang Ukay, Persiaran Ampang Ukay",
    "city": "Ampang",
    "state": "Selangor",
    "postcode": "68000",
    "latitude": 3.172092,
    "longitude": 101.7568,
    "category": "7-Eleven Store"
  },
  {
    "id": "467",
    "name": "Arena Green B.Jalil (24hrs)",
    "street": "No. D-0-5 &amp; D-0-6 Block D, Arena Green Artment, Jalan 1/155A",
    "city": "Bukit Jalil",
    "state": "Kuala Lumpur",
    "postcode": "57000",
    "latitude": 3.052465,
    "longitude": 101.687919,
    "category": "7-Eleven Store"
  },
  {
    "id": "1572",
    "name": "Arena Square Jln Yahya Ahmad, Dungun Trg (24 hrs)",
    "street": "Lot 6275 (GF), Bangunan Wisma Bukit Besi, Jalan Yahaya Ahmad",
    "city": "Dungun",
    "state": "Terengganu",
    "postcode": "23000",
    "latitude": 4.767734,
    "longitude": 103.4199151,
    "category": "7-Eleven Store"
  },
  {
    "id": "1699",
    "name": "ASPIRA GARDEN JHR (24 hrs)",
    "street": "No 17 (GF), Jalan Niaga Aspira 1/1, Gerbang Nusajaya",
    "city": "Iskandar Puteri",
    "state": "Johor",
    "postcode": "79200",
    "latitude": 1.4201357,
    "longitude": 103.5933643,
    "category": "7-Eleven Store"
  },
  {
    "id": "632",
    "name": "Assunta, PJ (24 hrs)",
    "street": "Assunta Hospital, Jalan Templer",
    "city": "Petaling Jaya",
    "state": "Selangor",
    "postcode": "46000",
    "latitude": 3.093441,
    "longitude": 101.645054,
    "category": "7-Eleven Store"
  },
  {
    "id": "2408",
    "name": "AssyakirinSquare Swk (24 hrs)",
    "street": "No 240 (PT 7869), Jalan Sultan Iskandar, Assyakirin Commerce Square PH2",
    "city": "Bintulu",
    "state": "Sarawak",
    "postcode": "97000",
    "latitude": 3.197832,
    "longitude": 113.055672,
    "category": "7-Eleven Store"
  },
  {
    "id": "33",
    "name": "Astana Utama Sek 13 (24 hrs)",
    "street": "No 26 (GF), Jalan Astana D 13/D, Pusat Niaga Astana Utama Sek 13",
    "city": "Puncak Alam",
    "state": "Selangor",
    "postcode": "42300",
    "latitude": 3.244711,
    "longitude": 101.426387,
    "category": [
      "CAFE by 7-Eleven",
      "ATM Available"
    ]
  },
  {
    "id": "2042",
    "name": "Astana View Kuantan (24 hrs)",
    "street": "No. B20 (GF), Lorong IM 15/18, Bandar Indera Mahkota",
    "city": "Kuantan",
    "state": "Pahang",
    "postcode": "25200",
    "latitude": 3.829075,
    "longitude": 103.271281,
    "category": "7-Eleven Store"
  },
  {
    "id": "1066",
    "name": "ATTA Hotel, BM PEN (24 hrs)",
    "street": "No 9, Solok Betek 1, Taman Sri Jaya",
    "city": "Bukit Mertajam",
    "state": "Penang",
    "postcode": "14000",
    "latitude": 5.364107,
    "longitude": 100.449899,
    "category": "7-Eleven Store"
  },
  {
    "id": "82",
    "name": "AU2 Keramat KL",
    "street": "No. 17, Jalan AU 2A/17",
    "city": "Taman Sri Keramat",
    "state": "Kuala Lumpur",
    "postcode": "54200",
    "latitude": 3.172142,
    "longitude": 101.750914,
    "category": "CAFE by 7-Eleven"
  },
  {
    "id": "357",
    "name": "AU4 Ampang (24hrs)",
    "street": "No. 8, Jalan AU4/1, Taman Sri Keramat Tengah, Taman Bukit Teratai",
    "city": "Ampang",
    "state": "Selangor",
    "postcode": "68000",
    "latitude": 3.197077,
    "longitude": 101.75922,
    "category": "7-Eleven Store"
  },
  {
    "id": "1342",
    "name": "Aurora Place Bkt Jalil KL",
    "street": "A-01-04, Aurora Place Bukit Jalil, No. 1, Jalan Persiaran Jalil 1",
    "city": "Bukit Jalil",
    "state": "Kuala Lumpur",
    "postcode": "57000",
    "latitude": 3.053749,
    "longitude": 101.670095,
    "category": "7-Eleven Store"
  },
  {
    "id": "278",
    "name": "Aurora Place KL",
    "street": "A-01-04, Aurora Place Bukit Jalil, No. 1, Jalan Persiaran Jalil 1, Bandar Bukit Jalil",
    "city": "Bukit Jalil",
    "state": "Kuala Lumpur",
    "postcode": "57000",
    "latitude": 3.0541064,
    "longitude": 101.6701151,
    "category": "CAFE by 7-Eleven"
  },
  {
    "id": "1751",
    "name": "Aurora Walk,Bahau, N9",
    "street": "No 9 (GF) Aurora Walk, Jalan Tecoma 1, Pusat Perniagaan Tecoma",
    "city": "Bahau",
    "state": "Negeri Sembilan",
    "postcode": "72100",
    "latitude": 2.808301,
    "longitude": 102.395955,
    "category": "7-Eleven Store"
  },
  {
    "id": "991",
    "name": "Austin Heights JB (24 hrs)",
    "street": "No. 111 (GF), Jalan Austin Heights 3, Austin Heights,Taman Mount Austin",
    "city": "Johor Bahru",
    "state": "Johor",
    "postcode": "81100",
    "latitude": 1.561657,
    "longitude": 103.778653,
    "category": "7-Eleven Store"
  },
  {
    "id": "2010",
    "name": "Austin Waterpark,JB (24 hrs)",
    "street": "No 22 (GF) Jalan Austin Height 8/2, Taman Mount Austin",
    "city": "Johor Bahru",
    "state": "Johor",
    "postcode": "81100",
    "latitude": 1.56177,
    "longitude": 103.776459,
    "category": "7-Eleven Store"
  },
  {
    "id": "1920",
    "name": "Auto City Juru PG (24 hrs)",
    "street": "No 1819-C, Jalan Perusahaan, Auto-City, North South Highway Juru Interchange",
    "city": "Prai",
    "state": "Penang",
    "postcode": "13600",
    "latitude": 5.338128,
    "longitude": 100.429078,
    "category": "7-Eleven Store"
  },
  {
    "id": "2220",
    "name": "Avenue K, KL",
    "street": "Lot UC-4, Upper Concourse Level, Avenue K, 156",
    "city": "Jalan Ampang",
    "state": "Kuala Lumpur",
    "postcode": "50450",
    "latitude": 3.159183,
    "longitude": 101.713539,
    "category": "7-Eleven Store"
  },
  {
    "id": "157",
    "name": "AVIA Plus SEL (24 hrs)",
    "street": "G-19, Avia Plus, Jalan Desa Utama, Bandar Country Homes",
    "city": "Rawang",
    "state": "Selangor",
    "postcode": "48000",
    "latitude": 3.323572,
    "longitude": 101.526664,
    "category": "CAFE by 7-Eleven"
  },
  {
    "id": "1476",
    "name": "Awana Skyway, Genting Highlands",
    "street": "Lot No 3-10 &amp; 3-K02, Level 3, Awana Skyway Station Genting Highlands Resort",
    "city": "Genting Highlands",
    "state": "Pahang",
    "postcode": "69000",
    "latitude": 3.404054,
    "longitude": 101.783447,
    "category": "7-Eleven Store"
  },
  {
    "id": "2418",
    "name": "Ayer Itam Pg",
    "street": "No 17C (GF), Jalan Ayer Itam MK 13",
    "city": "Ayer Hitam",
    "state": "Penang",
    "postcode": "11400",
    "latitude": 5.404256,
    "longitude": 100.289018,
    "category": "7-Eleven Store"
  },
  {
    "id": "338",
    "name": "Ayer Keroh Height Mlk (24 hrs)",
    "street": "No. 12, Ayer Keroh Heights",
    "city": "Ayer Keroh",
    "state": "Melaka",
    "postcode": "75450",
    "latitude": 2.255407,
    "longitude": 102.291386,
    "category": "7-Eleven Store"
  },
  {
    "id": "886",
    "name": "Ayer Tawar Prk (24 hrs)",
    "street": "No 11 (GF) Jalan Seri Sentosa 1, Taman Medan Seri Sentosa",
    "city": "Ayer Tawar",
    "state": "Perak",
    "postcode": "32400",
    "latitude": 4.293818,
    "longitude": 100.753073,
    "category": "7-Eleven Store"
  },
  {
    "id": "2566",
    "name": "B.B KangkarPulai Jhr (24 hrs)",
    "street": "No 21 (GF), Jalan Pulai Bistari 1, Bandar Baru Kangkar Pulai",
    "city": "Pulai",
    "state": "Johor",
    "postcode": "81110",
    "latitude": 1.564121,
    "longitude": 103.591257,
    "category": "7-Eleven Store"
  },
  {
    "id": "1379",
    "name": "B.B PASIR PEKAN KLT (24 hrs)",
    "street": "PT 3300 Ground Floor, Taman Sri Kota, Bandar Baru Pasir Pekan, Wakaf Bharu",
    "city": "Tumpat",
    "state": "Kelantan",
    "postcode": "1625",
    "latitude": 6.119406433,
    "longitude": 102.2161102,
    "category": "7-Eleven Store"
  },
  {
    "id": "1049",
    "name": "B.Baru Kuala Krai KEL (24 hrs)",
    "street": "No 17, Jalan LF 1, Laman Firdaus, Bandar Baru Kuala Krai",
    "city": "Kuala Krai",
    "state": "Kelantan",
    "postcode": "18000",
    "latitude": 5.493879,
    "longitude": 102.223101,
    "category": "7-Eleven Store"
  },
  {
    "id": "1230",
    "name": "B.Baru Selayang 2 SEL (24hrs)",
    "street": "No. 5 (GF), Jalan 2A/1, Fasa 2A, Bandar Baru Selayang",
    "city": "Batu Caves",
    "state": "Selangor",
    "postcode": "68100",
    "latitude": 3.262909,
    "longitude": 101.67807,
    "category": "7-Eleven Store"
  },
  {
    "id": "2547",
    "name": "B.TunHusseinOnn2 Kjg",
    "street": "No 24 (GF), Jalan Suarasa 8/4, Bandar Tun Hussien Onn",
    "city": "Cheras",
    "state": "Selangor",
    "postcode": "43200",
    "latitude": 3.046457,
    "longitude": 101.759794,
    "category": "7-Eleven Store"
  },
  {
    "id": "549",
    "name": "Bagan Ajam B'worth Pg (24 hrs)",
    "street": "No 7096 (GF) Jalan Bagan Ajam, Taman Bagan Ajam",
    "city": "Butterworth",
    "state": "Penang",
    "postcode": "13000",
    "latitude": 5.435508,
    "longitude": 100.380468,
    "category": "7-Eleven Store"
  },
  {
    "id": "1694",
    "name": "Bagan Luar 2 PG (24 hrs)",
    "street": "No 4708 (GF), Jalan Bagan Luar",
    "city": "Butterworth",
    "state": "Penang",
    "postcode": "12000",
    "latitude": 5.404765,
    "longitude": 100.369187,
    "category": "7-Eleven Store"
  },
  {
    "id": "2212",
    "name": "Bagan Luar PG",
    "street": "No 4708 (GF), Jalan Bagan Luar",
    "city": "Butterworth",
    "state": "Penang",
    "postcode": "12000",
    "latitude": 5.408216,
    "longitude": 100.37067,
    "category": "7-Eleven Store"
  },
  {
    "id": "814",
    "name": "Bagan Serai Prk (24 hrs)",
    "street": "No 245 (GF), Jalan Besar",
    "city": "Bagan Serai",
    "state": "Perak",
    "postcode": "34300",
    "latitude": 5.012586,
    "longitude": 100.533904,
    "category": "7-Eleven Store"
  },
  {
    "id": "1253",
    "name": "Bagan Specialist PG (24 hrs)",
    "street": "No. D1-102D-RE, D1-102E-RE, Level 1, Block D, Bagan Specialist Centre, Jalan Bagan 1",
    "city": "Butterworth",
    "state": "Penang",
    "postcode": "13400",
    "latitude": 5.410603,
    "longitude": 100.385852,
    "category": "7-Eleven Store"
  },
  {
    "id": "2233",
    "name": "Bakar Arang, Kedah (24 hrs)",
    "street": "No 37A (GF), Jalan Bakar Arang",
    "city": "Sungai Petani",
    "state": "Kedah",
    "postcode": "8000",
    "latitude": 5.626265,
    "longitude": 100.479978,
    "category": "7-Eleven Store"
  },
  {
    "id": "2264",
    "name": "Balai Kemasin, Kltn (24 hrs)",
    "street": "No 1441-A (GF), Kg Balai Kemasin",
    "city": "Bachok",
    "state": "Kelantan",
    "postcode": "16300",
    "latitude": 6.104061,
    "longitude": 102.376637,
    "category": "7-Eleven Store"
  },
  {
    "id": "2257",
    "name": "Balok Commercial KTN (24 hrs)",
    "street": "No B18 (GF), Lorong Balok Darat 15, Pusat Perkhidmatan Balok",
    "city": "Kuantan",
    "state": "Pahang",
    "postcode": "26100",
    "latitude": 3.935508,
    "longitude": 103.368207,
    "category": [
      "7-Eleven Store",
      "ATM Available"
    ]
  },
  {
    "id": "1296",
    "name": "Balok Perdana Kuantan PHG (24 hrs)",
    "street": "No B40 (GF), Lorong Balok Perdana 3/3, Balok Perdana",
    "city": "Kuantan",
    "state": "Pahang",
    "postcode": "26100",
    "latitude": 3.961578,
    "longitude": 103.372086,
    "category": "7-Eleven Store"
  },
  {
    "id": "975",
    "name": "Balok Phg (24 hrs)",
    "street": "No B1130/8 Lorong Chengal Lempong Aman 4, Jalan Kuantan-Kemaman, Perkampungan Chengal Lempong Aman",
    "city": "Balok",
    "state": "Pahang",
    "postcode": "26400",
    "latitude": 3.919097,
    "longitude": 103.365451,
    "category": [
      "7-Eleven Store",
      "ATM Available"
    ]
  },
  {
    "id": "1293",
    "name": "Bandar 16 Sierra SEL",
    "street": "No. 5 (GF), Jalan Sierra 10/1, Bandar 16 Sierra",
    "city": "Puchong",
    "state": "Selangor",
    "postcode": "47120",
    "latitude": 2.972633,
    "longitude": 101.658445,
    "category": "7-Eleven Store"
  },
  {
    "id": "1616",
    "name": "Bandar Amanjaya, Sungai Petani,Kdh (24 hrs)",
    "street": "No 15, Jalan Melor 1/1, Persiaran Amanjaya 5, Bandar Amanjaya",
    "city": "Sungai Petani",
    "state": "Kedah",
    "postcode": "8000",
    "latitude": 5.7030396,
    "longitude": 100.536806,
    "category": [
      "7-Eleven Store",
      "ATM Available"
    ]
  },
  {
    "id": "2125",
    "name": "Bandar Bachok, KLTN (24 hrs)",
    "street": "PT 146 (GF), Bandar Bachok",
    "city": "Bachok",
    "state": "Kelantan",
    "postcode": "16300",
    "latitude": 6.060242,
    "longitude": 102.401673,
    "category": "7-Eleven Store"
  },
  {
    "id": "274",
    "name": "Bandar Baru K. Lipis Pahang",
    "street": "No 6 (GF), BBKL, Bandar Baru Kuala Lipis",
    "city": "Kuala Lipis",
    "state": "Pahang",
    "postcode": "27200",
    "latitude": 3.1319197,
    "longitude": 101.6840589,
    "category": "CAFE by 7-Eleven"
  },
  {
    "id": "1153",
    "name": "Bandar Baru Kangkar Pulai JOH (24 hrs)",
    "street": "No. 2 (GF), PTD 103527, Jalan Pulai Ria 9, Bandar Baru Kangkar Pulai",
    "city": "Johor Bahru",
    "state": "Johor",
    "postcode": "81300",
    "latitude": 1.564793,
    "longitude": 103.587153,
    "category": "7-Eleven Store"
  },
  {
    "id": "286",
    "name": "Bandar Baru Kerteh TRG (24 hrs)",
    "street": "Lot 12345 (GF), Jalan Kemaman Dungun",
    "city": "Kemaman",
    "state": "Terengganu",
    "postcode": "24300",
    "latitude": 4.5386933,
    "longitude": 103.4280586,
    "category": "CAFE by 7-Eleven"
  },
  {
    "id": "1551",
    "name": "Bandar Baru Kerteh,Trg (24 hrs)",
    "street": "Lot 12345 (GF), Jalan Kemaman Dungun, Bandar Kertih (Kopetro)",
    "city": "Kemaman",
    "state": "Terengganu",
    "postcode": "24000",
    "latitude": 4.5084119,
    "longitude": 103.4436902,
    "category": "7-Eleven Store"
  },
  {
    "id": "1113",
    "name": "Bandar Baru Medan Ipoh PRK",
    "street": "No 19 (GF), Jalan Medan Ipoh 5, Bandar Baru Medan Ipoh",
    "city": "Ipoh",
    "state": "Perak",
    "postcode": "31400",
    "latitude": 4.616602,
    "longitude": 101.121343,
    "category": "7-Eleven Store"
  },
  {
    "id": "152",
    "name": "Bandar Baru Selayang SEL (24hrs)",
    "street": "No. 69 (GF), Jalan 2/16, Bandar Baru Selayang",
    "city": "Selayang",
    "state": "Selangor",
    "postcode": "68100",
    "latitude": 3.256424,
    "longitude": 101.656142,
    "category": "CAFE by 7-Eleven"
  },
  {
    "id": "227",
    "name": "Bandar Baru Sg Buloh 3/1 Sel (24 hrs)",
    "street": "Lot 2125 (GF), Jalan 3/1, Bandar Baru Sungai Buluh",
    "city": "Sungai Buloh",
    "state": "Selangor",
    "postcode": "47000",
    "latitude": 3.203824,
    "longitude": 101.560399,
    "category": [
      "CAFE by 7-Eleven",
      "ATM Available"
    ]
  },
  {
    "id": "1479",
    "name": "Bandar Bentara Tumpat Kelantan (24 hrs)",
    "street": "PT 3974, Ground Floor Jalan Setia 3, Bandar Bentara Tumpat",
    "city": "Melor",
    "state": "Kelantan",
    "postcode": "16200",
    "latitude": 6.191597,
    "longitude": 102.168754,
    "category": "7-Eleven Store"
  },
  {
    "id": "1072",
    "name": "Bandar Bentong Phg",
    "street": "No 1 (GF), Jalan Ah Peng",
    "city": "Bentong",
    "state": "Pahang",
    "postcode": "28700",
    "latitude": 3.52561,
    "longitude": 101.906346,
    "category": "7-Eleven Store"
  },
  {
    "id": "2124",
    "name": "Bandar Bera Pahang (24 hrs)",
    "street": "No 32 (GF) Jalan Kerayong 5, Bandar Bera",
    "city": "Triang",
    "state": "Pahang",
    "postcode": "28200",
    "latitude": 3.271953,
    "longitude": 102.455562,
    "category": "7-Eleven Store"
  },
  {
    "id": "2044",
    "name": "Bandar Bkt Raja KLG (24 hrs)",
    "street": "No 36 (GF), Jalan Makyong 5D/KU5, Bandar Bukit Raja",
    "city": "Klang",
    "state": "Selangor",
    "postcode": "40150",
    "latitude": 3.090069,
    "longitude": 101.432414,
    "category": "7-Eleven Store"
  },
  {
    "id": "1646",
    "name": "Bandar Bukit Jalil, KL (24 hrs)",
    "street": "No 13 (GF) Jalan 16/155C",
    "city": "Bukit Jalil",
    "state": "Kuala Lumpur",
    "postcode": "57000",
    "latitude": 3.0604247,
    "longitude": 101.6688511,
    "category": "7-Eleven Store"
  },
  {
    "id": "1361",
    "name": "Bandar Bukit Mahkota, Sel",
    "street": "No 26-G, Jalan BM 2/1, Seksyen 2, Bandar Bukit Mahkota",
    "city": "Kajang",
    "state": "Selangor",
    "postcode": "43000",
    "latitude": 2.887359,
    "longitude": 101.796216,
    "category": "7-Eleven Store"
  },
  {
    "id": "812",
    "name": "Bandar Bukit Puchong (24 hrs)",
    "street": "No. 11 (GF), Jalan BP 3/12, Bandar Bukit Puchong,",
    "city": "Puchong",
    "state": "Selangor",
    "postcode": "47100",
    "latitude": 2.989665,
    "longitude": 101.629873,
    "category": "7-Eleven Store"
  },
  {
    "id": "1801",
    "name": "Bandar Cyber Ipoh PK (24 hrs)",
    "street": "No 32 (GF) Jalan Lapangan Siber 10, Bandar Cyber Ipoh",
    "city": "Ipoh",
    "state": "Perak",
    "postcode": "31350",
    "latitude": 4.542664,
    "longitude": 101.109506,
    "category": "7-Eleven Store"
  },
  {
    "id": "2015",
    "name": "Bandar Dato Onn",
    "street": "No 30 (GF) Jalan Perjiranan 2, Bandar Dato Onn, 81100 Johor Bahru, Johor &quot;&quot;No 30 (GF) Jalan Perjiranan 2, Bandar Dato Onn",
    "city": "Johor Bahru",
    "state": "Johor",
    "postcode": "81100",
    "latitude": 1.557182,
    "longitude": 103.737781,
    "category": "7-Eleven Store"
  },
  {
    "id": "163",
    "name": "Bandar Enstek Nilai (24 hrs)",
    "street": "No 82 (GF), Jalan Timur 6/1B",
    "city": "Bandar Enstek",
    "state": "Negeri Sembilan",
    "postcode": "71760",
    "latitude": 2.748291,
    "longitude": 101.764145,
    "category": "CAFE by 7-Eleven"
  },
  {
    "id": "1207",
    "name": "Bandar Gambang, Kuantan PHG",
    "street": "A-43-G, Jalan Bandar Gambang 1, Pusat Komersial Bandar Gambang 1",
    "city": "Kuantan",
    "state": "Pahang",
    "postcode": "26300",
    "latitude": 3.710912,
    "longitude": 103.119144,
    "category": "7-Eleven Store"
  },
  {
    "id": "1216",
    "name": "Bandar Hill Park Puncak Alam SEL (24 hrs)",
    "street": "No. 23 (GF), Jalan MAPEL 7/1, Bandar Hillpark",
    "city": "Puncak Alam",
    "state": "Selangor",
    "postcode": "42300",
    "latitude": 3.213063,
    "longitude": 101.465358,
    "category": "7-Eleven Store"
  },
  {
    "id": "976",
    "name": "BANDAR INDAH. SANDAKAN,SABAH (24 hrs)",
    "street": "Lot 8 (GF), Block 8, Bandar Indah Jalan Utara",
    "city": "Sandakan",
    "state": "Sabah",
    "postcode": "90000",
    "latitude": 5.8546202,
    "longitude": 118.0740434,
    "category": "7-Eleven Store"
  },
  {
    "id": "1442",
    "name": "Bandar Indera Mahkota 3, Kuantan. (24 hrs)",
    "street": "A39, Ground Floor, Lorong IM3/19, Perumahan IM3, Bandar Indera Mahkota",
    "city": "Kuantan",
    "state": "Pahang",
    "postcode": "25200",
    "latitude": 3.819855,
    "longitude": 103.277592,
    "category": "7-Eleven Store"
  },
  {
    "id": "288",
    "name": "Bandar Inderapura Jerantut PHG (24 hrs)",
    "street": "No 55 (GF), Jalan Zapin Indah 3, Bandar Inderapura",
    "city": "Jerantut",
    "state": "Pahang",
    "postcode": "27000",
    "latitude": 3.9341239,
    "longitude": 102.3691322,
    "category": "CAFE by 7-Eleven"
  },
  {
    "id": "241",
    "name": "BANDAR JAYA PUTRA JHR Bandar Jaya Putra Johor (24 hrs)",
    "street": "No 39 (GF), Shop Office, Jalan Jaya Putra 7/6, Bandar Jaya Putra",
    "city": "Johor Bahru",
    "state": "Johor",
    "postcode": "81100",
    "latitude": 1.5793243,
    "longitude": 103.7687556,
    "category": "CAFE by 7-Eleven"
  },
  {
    "id": "2661",
    "name": "Bandar Jerantut, Phg (24 hrs)",
    "street": "No S-41 (GF) Jalan Tahan, Bandar Baru Jerantut",
    "city": "Jerantut",
    "state": "Pahang",
    "postcode": "27000",
    "latitude": 3.93706,
    "longitude": 102.362315,
    "category": "7-Eleven Store"
  },
  {
    "id": "142",
    "name": "Bandar Kinrara 2 Puchong SEL",
    "street": "No. 5 (GF), Jalan BK 2/11, Bandar Kinrara",
    "city": "Puchong",
    "state": "Selangor",
    "postcode": "47180",
    "latitude": 3.0524118,
    "longitude": 101.6433865,
    "category": "CAFE by 7-Eleven"
  },
  {
    "id": "1897",
    "name": "Bandar Laguna 2 SP (24 hrs)",
    "street": "No 16 (GF), Lorong BLM 1/2, Bandar Laguna Merbok",
    "city": "Sungai Petani",
    "state": "Kedah",
    "postcode": "8000",
    "latitude": 5.681018,
    "longitude": 100.493746,
    "category": [
      "7-Eleven Store",
      "ATM Available"
    ]
  },
  {
    "id": "578",
    "name": "Bandar Manjalara KL (24 hrs)",
    "street": "No. 23G (GF), Jalan 1/62D, Medan Putra Business Centre",
    "city": "Bandar Manjalara",
    "state": "Kuala Lumpur",
    "postcode": "52100",
    "latitude": 3.192991,
    "longitude": 101.625745,
    "category": "7-Eleven Store"
  },
  {
    "id": "109",
    "name": "Bandar Melawati K. Sel",
    "street": "No. 38 (GF), Jalan Melawati 3/1, Bandar Melawati",
    "city": "Kuala Selangor",
    "state": "Selangor",
    "postcode": "45000",
    "latitude": 3.331252,
    "longitude": 101.2535662,
    "category": "CAFE by 7-Eleven"
  },
  {
    "id": "38",
    "name": "Bandar Parklands, Klang (24 hrs)",
    "street": "No 125, Ground Floor, Jalan Jed 3/KS09, Bandar Parklands",
    "city": "Klang",
    "state": "Selangor",
    "postcode": "41200",
    "latitude": 2.974318,
    "longitude": 101.457665,
    "category": "CAFE by 7-Eleven"
  },
  {
    "id": "1715",
    "name": "BANDAR PERDANA KDH (24 hrs)",
    "street": "No 7-G, Tingkat Bawah, Jalan Pusat Perniagaan Bandar Perdana, Bandar Perdana",
    "city": "Sungai Petani",
    "state": "Kedah",
    "postcode": "8000",
    "latitude": 5.608723,
    "longitude": 100.506397,
    "category": "7-Eleven Store"
  },
  {
    "id": "1581",
    "name": "Bandar Permaisuri, Setiu",
    "street": "PT 6384 (GF), Jalan Penarik, Kg Buluh Hilir, Permaisuri",
    "city": "Setiu",
    "state": "Terengganu",
    "postcode": "22100",
    "latitude": 5.5209818,
    "longitude": 102.7481291,
    "category": "7-Eleven Store"
  },
  {
    "id": "275",
    "name": "Bandar Permaisuri, TRG (24 hrs)",
    "street": "PT 6384 (GF), Jalan Penarik, Kg Buluh Hilir",
    "city": "Setiu",
    "state": "Terengganu",
    "postcode": "22100",
    "latitude": 5.5901911,
    "longitude": 102.7879714,
    "category": "CAFE by 7-Eleven"
  },
  {
    "id": "539",
    "name": "Bandar Puchong (24 hrs)",
    "street": "No. 41 (GF), Jalan Bandar Satu, Pusat Bandar Puchong",
    "city": "Puchong",
    "state": "Selangor",
    "postcode": "47100",
    "latitude": 3.03494,
    "longitude": 101.617554,
    "category": "7-Eleven Store"
  },
  {
    "id": "2401",
    "name": "Bandar Puchong Utama",
    "street": "No 66 (GF), Jalan BPU 1, Bandar Puchong Utama",
    "city": "Puchong",
    "state": "Selangor",
    "postcode": "47100",
    "latitude": 2.994923,
    "longitude": 101.620957,
    "category": [
      "7-Eleven Store",
      "ATM Available"
    ]
  },
  {
    "id": "746",
    "name": "Bandar Puncak Alam (24 hrs)",
    "street": "No. 32, Lorong Naluri Sukma A 8/A, Seksyen A8",
    "city": "Bandar Baru Puncak Alam",
    "state": "Selangor",
    "postcode": "42300",
    "latitude": 3.229342,
    "longitude": 101.427052,
    "category": [
      "7-Eleven Store",
      "ATM Available"
    ]
  },
  {
    "id": "66",
    "name": "Bandar Putera Klang (24 hrs)",
    "street": "No 37 (GF) Jalan Kebun Nenas 4A/KS 8, Bandar Putera 2",
    "city": "Klang",
    "state": "Selangor",
    "postcode": "41200",
    "latitude": 2.978926,
    "longitude": 101.502168,
    "category": "CAFE by 7-Eleven"
  },
  {
    "id": "204",
    "name": "Bandar Puteri Bangi, SEL",
    "street": "No. 3 Jalan Puteri 3A/1, Bandar Puteri Bangi",
    "city": "Kajang",
    "state": "Selangor",
    "postcode": "43000",
    "latitude": 2.8791109,
    "longitude": 101.7958051,
    "category": "CAFE by 7-Eleven"
  },
  {
    "id": "29",
    "name": "Bandar Puteri Puchong SEL",
    "street": "No. 2, Jalan Puteri 1/1, Bandar Puteri Puchong",
    "city": "Puchong",
    "state": "Selangor",
    "postcode": "47100",
    "latitude": 3.025459,
    "longitude": 101.6158,
    "category": "CAFE by 7-Eleven"
  },
  {
    "id": "1290",
    "name": "Bandar Rimbayu, SEL (24 hrs)",
    "street": "No. 17 (GF), Jalan Flora 2/2, Bandar Rimbayu (Flora)",
    "city": "Telok Panglima Garang",
    "state": "Selangor",
    "postcode": "42500",
    "latitude": 2.933898,
    "longitude": 101.549221,
    "category": "7-Eleven Store"
  },
  {
    "id": "1965",
    "name": "Bandar Riyal SMR (24 hrs)",
    "street": "GR FL, SL10, Jalan Datuk Mohammad Musa, Bandar Riyal",
    "city": "Kuching",
    "state": "Sarawak",
    "postcode": "94300",
    "latitude": 1.455006,
    "longitude": 110.410487,
    "category": "7-Eleven Store"
  },
  {
    "id": "1437",
    "name": "Bandar Satelit Islam Pasir Tumboh",
    "street": "Lot 8044, Ground Floor, Bandar Satelit Islam Pasir Tumboh, Jalan Pasir Putih",
    "city": "Kota Bharu",
    "state": "Kelantan",
    "postcode": "16150",
    "latitude": 6.054663,
    "longitude": 102.280939,
    "category": "7-Eleven Store"
  },
  {
    "id": "2152",
    "name": "Bandar Satelit PHG (24 hrs)",
    "street": "No 15 (GF), Jalan Makmur 1, Presint Niaga Bandar Satelit, Lebuh Raya Tun Razak, Hentian Lebuh Raya",
    "city": "Muadzam Shah",
    "state": "Pahang",
    "postcode": "26700",
    "latitude": 3.069325,
    "longitude": 103.069586,
    "category": "7-Eleven Store"
  },
  {
    "id": "93",
    "name": "Bandar Saujana Putra, Jenjarom (24 hrs)",
    "street": "No.59 (GF) Jalan SP 1/1, Bandar Saujana Putra",
    "city": "Jenjarom",
    "state": "Selangor",
    "postcode": "42610",
    "latitude": 2.9520519,
    "longitude": 101.5775031,
    "category": "CAFE by 7-Eleven"
  },
  {
    "id": "188",
    "name": "Bandar Serenia SEL (24 hrs)",
    "street": "No. 7 (GF), Jalan Aman Serenia 6, Bandar Serenia",
    "city": "Sepang",
    "state": "Selangor",
    "postcode": "43900",
    "latitude": 2.8551945,
    "longitude": 101.7047119,
    "category": "CAFE by 7-Eleven"
  },
  {
    "id": "1640",
    "name": "Bandar Seri Alam, Masai, Johor",
    "street": "No 40 (GF) Jalan Suria 67, Bandar Seri Alam",
    "city": "Masai",
    "state": "Johor",
    "postcode": "81750",
    "latitude": 1.4960198,
    "longitude": 103.8799354,
    "category": "7-Eleven Store"
  },
  {
    "id": "2208",
    "name": "Bandar Springhill N9 (24 hrs)",
    "street": "No 692 (GF), Jalan Springhill 10/12, Jalan Seremban Batu 6, Bandar Springhill, Lukut",
    "city": "Port Dickson",
    "state": "Negeri Sembilan",
    "postcode": "71010",
    "latitude": 2.596299,
    "longitude": 101.855857,
    "category": "7-Eleven Store"
  },
  {
    "id": "2201",
    "name": "Bandar Sri Alam, JB",
    "street": "No 38 (GF), Jalan Lembah 19, Bandar Seri Alam",
    "city": "Masai",
    "state": "Johor",
    "postcode": "81750",
    "latitude": 1.508678,
    "longitude": 103.867549,
    "category": "7-Eleven Store"
  },
  {
    "id": "173",
    "name": "Bandar Sri Coalfields, Sg Buloh SEL (24 hrs)",
    "street": "No 18-G, Jalan BSC 2B/2, Bandar Seri Coalfields",
    "city": "Sungai Buloh",
    "state": "Selangor",
    "postcode": "47000",
    "latitude": 3.24656,
    "longitude": 101.474981,
    "category": "CAFE by 7-Eleven"
  },
  {
    "id": "169",
    "name": "Bandar Sri Semantan Pahang (24 hrs)",
    "street": "No 13 (GF) Jalan Sudirman 2, Bandar Sri Semantan",
    "city": "Temerloh",
    "state": "Pahang",
    "postcode": "28000",
    "latitude": 3.449916,
    "longitude": 102.415591,
    "category": [
      "CAFE by 7-Eleven",
      "ATM Available"
    ]
  },
  {
    "id": "979",
    "name": "BANDAR TABANAK,LAHAD DATU,SABAH (24 hrs)",
    "street": "MDLD 9497 Lot 1 (GF), Bandar Tabanak, Jalan Segama",
    "city": "Lahad Datu",
    "state": "Sabah",
    "postcode": "91100",
    "latitude": 5.0344207,
    "longitude": 118.3118749,
    "category": "7-Eleven Store"
  },
  {
    "id": "293",
    "name": "Bandar Tiram 3 Johor",
    "street": "Lot G.03, Ground Floor, Wisma Fui Chiu, No. 32, Jalan Tun Tan Cheng Lock",
    "city": "Tun Tan Cheng Lock",
    "state": "Kuala Lumpur",
    "postcode": "50050",
    "latitude": 3.14559,
    "longitude": 101.6978619,
    "category": "CAFE by 7-Eleven"
  },
  {
    "id": "2221",
    "name": "Bandar Tiram, JHR",
    "street": "Lot 169941 (GF), Jalan Duku",
    "city": "Ulu Tiram",
    "state": "Johor",
    "postcode": "81800",
    "latitude": 1.599196,
    "longitude": 103.823392,
    "category": "7-Eleven Store"
  },
  {
    "id": "251",
    "name": "Bandar Tropicana Aman SEL (24 hrs)",
    "street": "No 51-G, Jalan Aman Sinaria 2, Bandar Tropicana Aman",
    "city": "Telok Panglima Garang",
    "state": "Selangor",
    "postcode": "42500",
    "latitude": 2.943446,
    "longitude": 101.528186,
    "category": "CAFE by 7-Eleven"
  },
  {
    "id": "1428",
    "name": "Bandar Uda Utama, Johor (24 hrs)",
    "street": "No 44 Ground Floor, Jalan Utama 4/1, Bandar Uda Utama",
    "city": "Johor Bahru",
    "state": "Johor",
    "postcode": "81200",
    "latitude": 1.497058,
    "longitude": 103.667624,
    "category": "7-Eleven Store"
  },
  {
    "id": "1501",
    "name": "Bandar Universiti Pagoh",
    "street": "No 9 (GF), PTD 14925, Jalan Sarjana 1, Pusat Perniagaan Presint Sarjana, Bandar Universiti Pagoh",
    "city": "Muar",
    "state": "Johor",
    "postcode": "84600",
    "latitude": 2.148916,
    "longitude": 102.727244,
    "category": "7-Eleven Store"
  },
  {
    "id": "2615",
    "name": "Bandar Utama 4 PJ",
    "street": "G09 BU4, Jalan Changkat Utama, Bandar Utama",
    "city": "Petaling Jaya",
    "state": "Selangor",
    "postcode": "47800",
    "latitude": 3.150578,
    "longitude": 101.610456,
    "category": "7-Eleven Store"
  },
  {
    "id": "933",
    "name": "Bandaran Berjaya KK (24 hrs)",
    "street": "No. 56, Ground Floor, Bandaran Berjaya",
    "city": "Kota Kinabalu",
    "state": "Sabah",
    "postcode": "88000",
    "latitude": 5.977192,
    "longitude": 116.075837,
    "category": "7-Eleven Store"
  },
  {
    "id": "2013",
    "name": "BandarIndahPura",
    "street": "No 213 PTD 50895, Jalan Kenanga 29/2 Bandar Indahpura",
    "city": "Kulaijaya",
    "state": "Johor",
    "postcode": "81000",
    "latitude": 1.641472,
    "longitude": 103.618632,
    "category": "7-Eleven Store"
  },
  {
    "id": "234",
    "name": "BANGGOL PAUH TRE (24 hrs)",
    "street": "Lot 19634 (GF), Kg Banggol Pauh",
    "city": "Kuala Terengganu",
    "state": "Terengganu",
    "postcode": "21300",
    "latitude": 5.3480975,
    "longitude": 103.1158854,
    "category": "CAFE by 7-Eleven"
  },
  {
    "id": "612",
    "name": "Bangi Perdana (24 hrs)",
    "street": "No. 28, Jalan 3/7, Bangi Perdana, Seksyen 3",
    "city": "Bandar Baru Bangi",
    "state": "Selangor",
    "postcode": "43650",
    "latitude": 2.947456,
    "longitude": 101.780635,
    "category": "7-Eleven Store"
  },
  {
    "id": "352",
    "name": "Bangi SEL",
    "street": "No. 4 (GF), Jalan 4/1B, Bandar Baru Bangi",
    "city": "Kajang",
    "state": "Selangor",
    "postcode": "43000",
    "latitude": 2.954131,
    "longitude": 101.778824,
    "category": [
      "7-Eleven Store",
      "ATM Available"
    ]
  },
  {
    "id": "616",
    "name": "Bangunan Loke Yew",
    "street": "No. 4 (GF), Bangunan Loke Yew",
    "city": "Jalan Mahkamah Persekutuan",
    "state": "Kuala Lumpur",
    "postcode": "50050",
    "latitude": 3.1472887,
    "longitude": 101.6947764,
    "category": "7-Eleven Store"
  },
  {
    "id": "265",
    "name": "Bangunan Loke Yew KL (24hrs)",
    "street": "No. 4 (GF), Bangunan Loke Yew, Jalan Mahkamah Persekutuan",
    "city": "Bangunan Loke Yew",
    "state": "Kuala Lumpur",
    "postcode": "50050",
    "latitude": 3.1472887,
    "longitude": 101.6947764,
    "category": [
      "CAFE by 7-Eleven",
      "ATM Available"
    ]
  },
  {
    "id": "213",
    "name": "Bangunan Pknp Prk (24 hrs)",
    "street": "B9, Bangunan PKNP, Jalan Ahmad Boestamam",
    "city": "Slim River",
    "state": "Perak",
    "postcode": "35800",
    "latitude": 3.8290582,
    "longitude": 101.4044304,
    "category": "CAFE by 7-Eleven"
  },
  {
    "id": "1647",
    "name": "Bangunan UMNO Pekan PHG (24 hrs)",
    "street": "Lot G-03 (GF) Bangunan UMNO Pekan, Jalan Tengku Arif Bendahara",
    "city": "Pekan",
    "state": "Pahang",
    "postcode": "26600",
    "latitude": 3.4913462,
    "longitude": 103.3924275,
    "category": "7-Eleven Store"
  },
  {
    "id": "1684",
    "name": "Bangunan Umno Pekan PHG (24 hrs)",
    "street": "Lot G-03 (GF) Bangunan UMNO Pekan, Jalan Tengku Arif Bendahara",
    "city": "Pekan",
    "state": "Pahang",
    "postcode": "26600",
    "latitude": 3.4917946,
    "longitude": 103.392224,
    "category": "7-Eleven Store"
  },
  {
    "id": "45",
    "name": "Banting Baru Sel (24 hrs)",
    "street": "No 11, Ground Floor, Jalan BB 1/1, Taman Banting Baru",
    "city": "Banting",
    "state": "Selangor",
    "postcode": "42700",
    "latitude": 2.817602,
    "longitude": 101.454943,
    "category": [
      "CAFE by 7-Eleven",
      "ATM Available"
    ]
  },
  {
    "id": "1531",
    "name": "Barrington Sq. Cameron Highlands (24 hrs)",
    "street": "G-33A (GF), Block C, Barrington Square Golden Hills, Jalan Golden Hills 1, Cameron Golden Hills, Tanah Rata",
    "city": "Cameron Highlands",
    "state": "Pahang",
    "postcode": "39000",
    "latitude": 4.4875899,
    "longitude": 101.3735586,
    "category": "7-Eleven Store"
  },
  {
    "id": "1157",
    "name": "Batang Benar N9 (24 hrs)",
    "street": "No. 3 (GF), Pusat Perniagaan Laman Galla, Jalan Perniagaan Laman Galla",
    "city": "Nilai",
    "state": "Negeri Sembilan",
    "postcode": "71800",
    "latitude": 2.843062,
    "longitude": 101.89138,
    "category": "7-Eleven Store"
  },
  {
    "id": "556",
    "name": "Batang Kali Sel (24 hrs)",
    "street": "No. 51 (GF), Jalan Meranti 2B, Bandar Baru Batang Kali",
    "city": "Batang Kali",
    "state": "Selangor",
    "postcode": "44300",
    "latitude": 3.459373,
    "longitude": 101.655193,
    "category": "7-Eleven Store"
  },
  {
    "id": "1918",
    "name": "Batu 7,Jln Paka, TRG",
    "street": "Lot 8938 (PT 8035) GF, Depan Politeknik Sultan Mizan, Batu 7, Jalan Paka",
    "city": "Dungun",
    "state": "Terengganu",
    "postcode": "23000",
    "latitude": 4.711485,
    "longitude": 103.401845,
    "category": "7-Eleven Store"
  },
  {
    "id": "346",
    "name": "Batu Belah Klg (24 hrs)",
    "street": "No. 182A-1, Jalan Sg. Putus",
    "city": "Klang",
    "state": "Selangor",
    "postcode": "41050",
    "latitude": 3.070417,
    "longitude": 101.441091,
    "category": "7-Eleven Store"
  },
  {
    "id": "347",
    "name": "Batu Berendam Mlk (24 hrs)",
    "street": "No. 34, Jalan Mutiara Melaka 2",
    "city": "Batu Berendam",
    "state": "Melaka",
    "postcode": "75350",
    "latitude": 2.237911,
    "longitude": 102.260653,
    "category": "7-Eleven Store"
  },
  {
    "id": "1773",
    "name": "Batu Buruk K.TRG",
    "street": "RS 04, Lot 1544 Mukim Batu Buruk",
    "city": "Kuala Terengganu",
    "state": "Terengganu",
    "postcode": "20400",
    "latitude": 5.320582,
    "longitude": 103.155393,
    "category": "7-Eleven Store"
  },
  {
    "id": "439",
    "name": "Batu Caves",
    "street": "No. 36 (GF), Jalan Pinggiran 2/2, Pinggiran Batu Caves",
    "city": "Batu Caves",
    "state": "Selangor",
    "postcode": "68100",
    "latitude": 3.255529,
    "longitude": 101.694246,
    "category": "7-Eleven Store"
  },
  {
    "id": "488",
    "name": "Batu Ferringi Pg (24 hrs)",
    "street": "No 1 Lorong Sungai Emas",
    "city": "Batu Feringgi",
    "state": "Penang",
    "postcode": "11100",
    "latitude": 5.475354,
    "longitude": 100.252746,
    "category": [
      "7-Eleven Store",
      "ATM Available"
    ]
  },
  {
    "id": "1603",
    "name": "Batu Gajah Perdana, Perak",
    "street": "No 2 (GF), Persiaran BG Perdana 1, Pusat Komersial BG Perdana",
    "city": "Batu Gajah",
    "state": "Perak",
    "postcode": "31000",
    "latitude": 4.4956733,
    "longitude": 101.0197377,
    "category": "7-Eleven Store"
  },
  {
    "id": "849",
    "name": "Batu Gajah Prk",
    "street": "No 23 (GF) Jalan Dewangsa",
    "city": "Batu Gajah",
    "state": "Perak",
    "postcode": "31000",
    "latitude": 4.472591,
    "longitude": 101.040779,
    "category": "7-Eleven Store"
  },
  {
    "id": "2267",
    "name": "Batu Jong, Kelantan (24 hrs)",
    "street": "PT 3894 (GF), Jalan Batu Jong",
    "city": "Kuala Krai",
    "state": "Kelantan",
    "postcode": "18000",
    "latitude": 5.597516,
    "longitude": 102.193237,
    "category": "7-Eleven Store"
  },
  {
    "id": "505",
    "name": "Batu Kawah Kch (24 hrs)",
    "street": "No CG-108 (GF) Block G2, Batu Kawah, New Township, Jalan Batu Kawah",
    "city": "Kuching",
    "state": "Sarawak",
    "postcode": "93250",
    "latitude": 1.512705,
    "longitude": 110.307876,
    "category": "7-Eleven Store"
  },
  {
    "id": "738",
    "name": "Batu Kikir N9 (24 hrs)",
    "street": "No. 12 (GF), Jalan Beringin 3",
    "city": "Batu Kikir",
    "state": "Negeri Sembilan",
    "postcode": "72200",
    "latitude": 2.830842,
    "longitude": 102.318525,
    "category": [
      "7-Eleven Store",
      "ATM Available"
    ]
  },
  {
    "id": "1258",
    "name": "Batu Nilam 3C Bukit Tinggi SEL",
    "street": "No. 42-0, Lorong Batu Nilam 3C, Bandar Bukit Tinggi",
    "city": "Klang",
    "state": "Selangor",
    "postcode": "41200",
    "latitude": 3.009178,
    "longitude": 101.435273,
    "category": "7-Eleven Store"
  },
  {
    "id": "857",
    "name": "BatuMaungB.Lepas Pg (24 hrs)",
    "street": "No 17-1 (GF) Lorong Batu Maung 1, Batu Maung",
    "city": "Bayan Lepas",
    "state": "Penang",
    "postcode": "11960",
    "latitude": 5.28817,
    "longitude": 100.281628,
    "category": "7-Eleven Store"
  },
  {
    "id": "330",
    "name": "Bayan Baru Pg (24 hrs)",
    "street": "No 36, Sunshine Square, Jalan Mahsuri, Bandar Bayan Baru",
    "city": "Bayan Lepas",
    "state": "Penang",
    "postcode": "11950",
    "latitude": 5.326581,
    "longitude": 100.286671,
    "category": "7-Eleven Store"
  },
  {
    "id": "383",
    "name": "Bayu Perdana Klg",
    "street": "No. 108 (GF), Jalan Batu Unjur 1, Bayu Perdana",
    "city": "Klang",
    "state": "Selangor",
    "postcode": "41200",
    "latitude": 3.014869,
    "longitude": 101.435305,
    "category": "7-Eleven Store"
  },
  {
    "id": "1981",
    "name": "Bazaar 8 Putrajaya (24 hrs)",
    "street": "A-5 (GF), Block A, Jalan Seluang P8/7",
    "city": "Putrajaya",
    "state": "Selangor",
    "postcode": "62250",
    "latitude": 2.9324866,
    "longitude": 101.6810684,
    "category": "7-Eleven Store"
  },
  {
    "id": "1707",
    "name": "Bazaar 8 Putrajaya KL (24 hrs)",
    "street": "A-5 (GF), Block A, Jalan Seluang P8/7, Presint 8",
    "city": "Putrajaya",
    "state": "Selangor",
    "postcode": "62250",
    "latitude": 2.9324866,
    "longitude": 101.6810684,
    "category": "7-Eleven Store"
  },
  {
    "id": "2263",
    "name": "BB Gua Musang, Kltn (24 hrs)",
    "street": "Lot 9340 (GF), Perumahan Taman Titiwangsa, Bandar Baru",
    "city": "Gua Musang",
    "state": "Kelantan",
    "postcode": "18300",
    "latitude": 4.860956,
    "longitude": 101.954359,
    "category": "7-Eleven Store"
  },
  {
    "id": "404",
    "name": "BB Sg Buloh 1A/3 Sel (24 hrs)",
    "street": "No. 367 (GF), Jalan 1A/3, Bandar Baru Sg. Buloh",
    "city": "Sungai Buloh",
    "state": "Selangor",
    "postcode": "47000",
    "latitude": 3.210928,
    "longitude": 101.565745,
    "category": "7-Eleven Store"
  },
  {
    "id": "2582",
    "name": "BB Sri Petaling (24hrs)",
    "street": "No.15 (GF), Jalan 13/149L",
    "city": "Sri Petaling",
    "state": "Kuala Lumpur",
    "postcode": "57000",
    "latitude": 3.071476,
    "longitude": 101.682345,
    "category": "7-Eleven Store"
  },
  {
    "id": "1863",
    "name": "BB Tunjung KLTN (24 hrs)",
    "street": "PT 382 (GF) Bandar Baru Tunjung, Jalan Kuala Krai",
    "city": "Kota Bharu",
    "state": "Kelantan",
    "postcode": "15100",
    "latitude": 6.070341,
    "longitude": 102.238115,
    "category": "7-Eleven Store"
  },
  {
    "id": "1798",
    "name": "BB Wakaf Bharu KLTN (24 hrs)",
    "street": "PT 893-A (GF), Jalan Baru",
    "city": "Wakaf Bharu",
    "state": "Kelantan",
    "postcode": "16250",
    "latitude": 6.119287,
    "longitude": 102.197134,
    "category": "7-Eleven Store"
  },
  {
    "id": "1144",
    "name": "BBCP KLIA 1, Sepang, SEL (24 hrs)",
    "street": "CPBB-2-L01 &amp; CPBB-2-L02, Level 2, Car Park Block B, KL International Airport",
    "city": "Sepang",
    "state": "Selangor",
    "postcode": "64000",
    "latitude": 2.754597,
    "longitude": 101.703233,
    "category": "7-Eleven Store"
  },
  {
    "id": "766",
    "name": "BdarBaru Ampang (24hrs)",
    "street": "No. 12 (GF), Jalan Wawasan 4/5, Bandar Baru Ampang",
    "city": "Ampang",
    "state": "Selangor",
    "postcode": "68000",
    "latitude": 3.146279,
    "longitude": 101.765091,
    "category": "7-Eleven Store"
  },
  {
    "id": "1238",
    "name": "BDC Specialist Hospital, Kuching SWK (24 hrs)",
    "street": "Shoplot 1, Level 1, BDC Specialist Hospital, Lot 18807, Block 11, Muara Tebas Land District",
    "city": "Kuching",
    "state": "Sarawak",
    "postcode": "93350",
    "latitude": 1.5061266,
    "longitude": 110.3654756,
    "category": "7-Eleven Store"
  },
  {
    "id": "2412",
    "name": "Bdr Banting, Klg",
    "street": "No 352 (GF), Jalan Sultan Abdul Samad",
    "city": "Banting",
    "state": "Selangor",
    "postcode": "42700",
    "latitude": 2.812735,
    "longitude": 101.49897,
    "category": "7-Eleven Store"
  },
  {
    "id": "2361",
    "name": "Bdr Baru Bt Gajah Pk (24 hrs)",
    "street": "No 59 (GF), Jalan Bandar Baharu 1, Pusat Bandar Baru",
    "city": "Batu Gajah",
    "state": "Perak",
    "postcode": "31000",
    "latitude": 4.473768,
    "longitude": 101.051004,
    "category": "7-Eleven Store"
  },
  {
    "id": "572",
    "name": "Bdr Baru Jasin Mlk (24 hrs)",
    "street": "No. JA 9939 (GF)",
    "city": "Bandar Baru Jasin",
    "state": "Melaka",
    "postcode": "77200",
    "latitude": 2.31237,
    "longitude": 102.432309,
    "category": "7-Eleven Store"
  },
  {
    "id": "1116",
    "name": "Bdr Baru Jelawat KEL (24 hrs)",
    "street": "PT 4506 B, Kedai Jelawat, Jelawat",
    "city": "Bachok",
    "state": "Kelantan",
    "postcode": "16070",
    "latitude": 6.011793,
    "longitude": 102.381377,
    "category": "7-Eleven Store"
  },
  {
    "id": "2337",
    "name": "Bdr Baru K.Lipis PHG (24 hrs)",
    "street": "No 6 (GF), Bandar Baru, Seberang Jelai",
    "city": "Kuala Lipis",
    "state": "Pahang",
    "postcode": "27200",
    "latitude": 4.187516,
    "longitude": 102.060958,
    "category": "7-Eleven Store"
  },
  {
    "id": "696",
    "name": "Bdr Baru Kampar Prk",
    "street": "No 2261 (GF) Jalan Baru Sinar, Taman Bandar Baru",
    "city": "Kampar",
    "state": "Perak",
    "postcode": "31900",
    "latitude": 4.326445,
    "longitude": 101.143399,
    "category": "7-Eleven Store"
  },
  {
    "id": "1527",
    "name": "Bdr Baru Kampar PRK",
    "street": "No 2261 (GF) Jalan Baru Sinar, Taman Bandar Baru",
    "city": "Kampar",
    "state": "Perak",
    "postcode": "31900",
    "latitude": 4.3258942,
    "longitude": 101.143947,
    "category": [
      "7-Eleven Store",
      "ATM Available"
    ]
  },
  {
    "id": "788",
    "name": "Bdr Baru Lipis Phg",
    "street": "No 124 (GF), Jalan Besar, Bandar Baru Lipis,",
    "city": "Kuala Lipis",
    "state": "Pahang",
    "postcode": "27200",
    "latitude": 4.188431,
    "longitude": 102.053115,
    "category": "7-Eleven Store"
  },
  {
    "id": "2652",
    "name": "Bdr Baru Manjung Prk (24 hrs)",
    "street": "Lot A8 (GF), Fasa 1C-3, Bandar Baru Seri Manjung",
    "city": "Manjung",
    "state": "Perak",
    "postcode": "32040",
    "latitude": 4.197943,
    "longitude": 100.667995,
    "category": "7-Eleven Store"
  },
  {
    "id": "2410",
    "name": "Bdr Baru Mergong Kdh (24 hrs)",
    "street": "No 18 (GF), Taman Bandar Baru Mergong, Persiaran Bandar Baru Mergong",
    "city": "Alor Setar",
    "state": "Kedah",
    "postcode": "5150",
    "latitude": 6.130093,
    "longitude": 100.342767,
    "category": "7-Eleven Store"
  },
  {
    "id": "2632",
    "name": "Bdr Baru Nilai N9",
    "street": "PT 7438 (GF), Jalan BBN 1/2F, Putra Point",
    "city": "Bandar Baru Nilai",
    "state": "Negeri Sembilan",
    "postcode": "71800",
    "latitude": 2.813035,
    "longitude": 101.792957,
    "category": "7-Eleven Store"
  },
  {
    "id": "684",
    "name": "Bdr Baru Rompin Phg (24 hrs)",
    "street": "No 29 (GF), Jalan Utama, Bandar Baru Rompin",
    "city": "Kuala Rompin",
    "state": "Pahang",
    "postcode": "26800",
    "latitude": 2.796321,
    "longitude": 103.486262,
    "category": "7-Eleven Store"
  },
  {
    "id": "2541",
    "name": "Bdr Baru SgUdang Mlk (24 hrs)",
    "street": "No 9 (GF), Jalan Kerambit 1, Bandar Baru Sungai Udang",
    "city": "Sg Udang",
    "state": "Melaka",
    "postcode": "76300",
    "latitude": 2.290283,
    "longitude": 102.140222,
    "category": "7-Eleven Store"
  },
  {
    "id": "2043",
    "name": "Bdr Baru Spg 4 MLK (24 hrs)",
    "street": "Lot 6164 (GF) Taman Bandar Baru Simpang Empat",
    "city": "Alor Gajah",
    "state": "Melaka",
    "postcode": "78000",
    "latitude": 2.442307,
    "longitude": 102.184503,
    "category": "7-Eleven Store"
  },
  {
    "id": "762",
    "name": "Bdr Baru T.Intan Prk (24 hrs)",
    "street": "No 2 (GF), Jalan Intan 4, Bandar Baru Teluk Intan",
    "city": "Teluk Intan",
    "state": "Perak",
    "postcode": "36000",
    "latitude": 4.02003,
    "longitude": 101.023147,
    "category": "7-Eleven Store"
  },
  {
    "id": "1371",
    "name": "Bdr Baru Tunjung KLT (24 hrs)",
    "street": "PT 382 (GF) Bandar Baru Tunjung, Jalan Kuala Krai",
    "city": "Kota Bharu",
    "state": "Kelantan",
    "postcode": "15100",
    "latitude": 6.0710548,
    "longitude": 102.237646,
    "category": "7-Eleven Store"
  },
  {
    "id": "2101",
    "name": "Bdr Br Merlimau MLK (24 hrs)",
    "street": "No JC 100 (GF) Jalan BMU 2, Bandar Baru Merlimau Utara",
    "city": "Merlimau",
    "state": "Melaka",
    "postcode": "77300",
    "latitude": 2.166781,
    "longitude": 102.431081,
    "category": "7-Eleven Store"
  },
  {
    "id": "1862",
    "name": "Bdr Br Semariang KCH (24 hrs)",
    "street": "Lot 5588, Ground Floor, Block 9 , Salak Land Distric, No. 154, Bandar Baru Samariang Commercial Centre",
    "city": "Kuching",
    "state": "Sarawak",
    "postcode": "93050",
    "latitude": 1.635461,
    "longitude": 110.341852,
    "category": "7-Eleven Store"
  },
  {
    "id": "1155",
    "name": "Bdr Darulaman 2 Jitra KDH (24 hrs)",
    "street": "Lot No 3, Plot 21, Jalan Industri Darulaman 1, Kawasan Perusahaan Bandar Darulaman",
    "city": "Jitra",
    "state": "Kedah",
    "postcode": "6000",
    "latitude": 6.253325,
    "longitude": 100.428052,
    "category": "7-Eleven Store"
  },
  {
    "id": "504",
    "name": "Bdr Darulaman Jitra Kdh (24 hrs)",
    "street": "No 48 (GF), Jalan Pantai Halban, Bandar Darulaman Jaya",
    "city": "Jitra",
    "state": "Kedah",
    "postcode": "6000",
    "latitude": 6.243097,
    "longitude": 100.420181,
    "category": "7-Eleven Store"
  },
  {
    "id": "1503",
    "name": "Bdr Dato Onn 2 ,JB",
    "street": "No 47, Ground Floor, Jalan Perjiranan 15/1, Bandar Dato Onn",
    "city": "Johor Bahru",
    "state": "Johor",
    "postcode": "81100",
    "latitude": 1.569951,
    "longitude": 103.74369,
    "category": "7-Eleven Store"
  },
  {
    "id": "540",
    "name": "Bdr Hussein Onn Cheras (24hrs)",
    "street": "No. 10 (GF), Jalan Suadamai 1/2, Bandar Tun Hussien Onn",
    "city": "Cheras",
    "state": "Selangor",
    "postcode": "43200",
    "latitude": 3.054897,
    "longitude": 101.758737,
    "category": "7-Eleven Store"
  },
  {
    "id": "867",
    "name": "Bdr Jaya Gading Phg (24 hrs)",
    "street": "No B24 (GF) Lorong Jaya Gading 12",
    "city": "Bandar Jaya Gading",
    "state": "Pahang",
    "postcode": "26070",
    "latitude": 3.755196,
    "longitude": 103.203934,
    "category": "7-Eleven Store"
  },
  {
    "id": "2451",
    "name": "Bdr Kamunting Prk (24 hrs)",
    "street": "No 15 (GF), Laluan Kamunting 1, Bandar Kamunting",
    "city": "Taiping",
    "state": "Perak",
    "postcode": "34000",
    "latitude": 4.892968,
    "longitude": 100.734396,
    "category": "7-Eleven Store"
  },
  {
    "id": "561",
    "name": "Bdr Kinrara Puchong (24 hrs)",
    "street": "No. 2 (GF), Jalan BK 4/2A, Bandar Kinrara, Section 4",
    "city": "Puchong",
    "state": "Selangor",
    "postcode": "47100",
    "latitude": 3.042841,
    "longitude": 101.641412,
    "category": "7-Eleven Store"
  },
  {
    "id": "417",
    "name": "Bdr Kluang JB (24 hrs)",
    "street": "No 3 Jalan Syed Abd Hamid Sagaff",
    "city": "Kluang",
    "state": "Johor",
    "postcode": "86000",
    "latitude": 2.034256,
    "longitude": 103.320268,
    "category": "7-Eleven Store"
  },
  {
    "id": "1165",
    "name": "Bdr Kubang Kerian KB KEL (24 hrs)",
    "street": "",
    "city": "Kota Bharu",
    "state": "Kelantan",
    "postcode": "",
    "latitude": 6.100955,
    "longitude": 102.279968,
    "category": "7-Eleven Store"
  },
  {
    "id": "2187",
    "name": "Bdr Laguna Merbok SP (24 hrs)",
    "street": "No. 9 (GF) Lorong BLM 6/2, Bandar Laguna Merbok",
    "city": "Sungai Petani",
    "state": "Kedah",
    "postcode": "8000",
    "latitude": 5.680562,
    "longitude": 100.492474,
    "category": "7-Eleven Store"
  },
  {
    "id": "2106",
    "name": "Bdr Meru Jaya Iph PK (24 hrs)",
    "street": "No 13A (GF), Jalan Meru Bestari B5, Bandar Meru Raya",
    "city": "Ipoh",
    "state": "Perak",
    "postcode": "30020",
    "latitude": 4.670085,
    "longitude": 101.076072,
    "category": "7-Eleven Store"
  },
  {
    "id": "944",
    "name": "Bdr Pasaraya SDK (24 hrs)",
    "street": "Lot 93 (GF), Block M, Bandar Pasaraya, Jalan Utara",
    "city": "Sandakan",
    "state": "Sabah",
    "postcode": "90000",
    "latitude": 5.858033,
    "longitude": 118.079164,
    "category": "7-Eleven Store"
  },
  {
    "id": "2211",
    "name": "Bdr Permyjaya, Miri (24 hrs)",
    "street": "Lot 8002 (GF), Pusat Bandar Shophouses, Jalan Desa Pujut, Bandar Baru Permyjaya",
    "city": "Miri",
    "state": "Sarawak",
    "postcode": "98000",
    "latitude": 4.451653,
    "longitude": 114.039666,
    "category": "7-Eleven Store"
  },
  {
    "id": "2662",
    "name": "Bdr Pngkln Indah Prk (24 hrs)",
    "street": "No 3 (GF) Jalan Pangkalan Indah 4, Bandar Pangkalan Indah",
    "city": "Ipoh",
    "state": "Perak",
    "postcode": "31650",
    "latitude": 4.542942,
    "longitude": 101.083102,
    "category": "7-Eleven Store"
  },
  {
    "id": "627",
    "name": "Bdr Puchong Jaya",
    "street": "No. 15 (GF), Jalan Helang 13, Bandar Puchong Jaya",
    "city": "Puchong",
    "state": "Selangor",
    "postcode": "47100",
    "latitude": 3.060746,
    "longitude": 101.627086,
    "category": [
      "7-Eleven Store",
      "ATM Available"
    ]
  },
  {
    "id": "557",
    "name": "Bdr Puteri 7/9 Puchong",
    "street": "No. 29-1 (GF), Jalan Puteri 7/9, Bandar Puteri",
    "city": "Puchong",
    "state": "Selangor",
    "postcode": "47100",
    "latitude": 3.025423,
    "longitude": 101.623446,
    "category": "7-Eleven Store"
  },
  {
    "id": "1747",
    "name": "Bdr Puteri Jaya SP Kdh (24 hrs)",
    "street": "No 113 (GF), Jalan Bandar Puteri Jaya 1/1, Seksyen 1, Bandar Puteri Jaya",
    "city": "Sungai Petani",
    "state": "Kedah",
    "postcode": "8000",
    "latitude": 5.6161815,
    "longitude": 100.534653,
    "category": [
      "7-Eleven Store",
      "ATM Available"
    ]
  },
  {
    "id": "759",
    "name": "Bdr Puteri Klg (24 hrs)",
    "street": "No. 23 (GF), Lorong Sanggul 1A, Bandar Puteri",
    "city": "Klang",
    "state": "Selangor",
    "postcode": "42000",
    "latitude": 2.988018,
    "longitude": 101.467235,
    "category": "7-Eleven Store"
  },
  {
    "id": "2276",
    "name": "Bdr Puteri Puchong (24 hrs)",
    "street": "No 22A (GF), Jalan Puteri 1/2, Bandar Puteri",
    "city": "Puchong",
    "state": "Selangor",
    "postcode": "47100",
    "latitude": 3.026493,
    "longitude": 101.616027,
    "category": "7-Eleven Store"
  },
  {
    "id": "1028",
    "name": "Bdr Puteri1/4 Puchong (24 hrs)",
    "street": "No. 16 (GF) Jalan Puteri 1/4, Bandar Puteri",
    "city": "Puchong",
    "state": "Selangor",
    "postcode": "47100",
    "latitude": 3.025924,
    "longitude": 101.616832,
    "category": "7-Eleven Store"
  },
  {
    "id": "2104",
    "name": "Bdr Puteri5/1 Puchong",
    "street": "No. 54-G (GF), Jalan Puteri 5/1, Bandar Puteri",
    "city": "Puchong",
    "state": "Selangor",
    "postcode": "47100",
    "latitude": 3.013587,
    "longitude": 101.615604,
    "category": [
      "7-Eleven Store",
      "ATM Available"
    ]
  },
  {
    "id": "1691",
    "name": "BDR PUTRA 2 SGMT JOH (24 hrs)",
    "street": "No 80, Ground Floor, Jalan Putra 2/23, Taman Bandar Putra",
    "city": "Segamat",
    "state": "Johor",
    "postcode": "85000",
    "latitude": 2.4994236,
    "longitude": 102.8532011,
    "category": "7-Eleven Store"
  },
  {
    "id": "809",
    "name": "Bdr Putra IOI, JB (24 hrs)",
    "street": "No 5432 (GF), Jalan Kenari 18, Bandar Putra IOI",
    "city": "Kulai",
    "state": "Johor",
    "postcode": "81000",
    "latitude": 1.657168,
    "longitude": 103.629951,
    "category": [
      "7-Eleven Store",
      "ATM Available"
    ]
  },
  {
    "id": "656",
    "name": "Bdr Putra Segamat JB (24 hrs)",
    "street": "No 13 (GF), Jalan Putra 1/2, Bandar Putra",
    "city": "Segamat",
    "state": "Johor",
    "postcode": "85000",
    "latitude": 2.494162,
    "longitude": 102.865054,
    "category": "7-Eleven Store"
  },
  {
    "id": "654",
    "name": "Bdr Semenyih, SEL (24 hrs)",
    "street": "No. 17 (GF), Jalan Pasar Baru 2, Seksyen 3, Bandar Semenyih",
    "city": "Semenyih",
    "state": "Selangor",
    "postcode": "43500",
    "latitude": 2.948229,
    "longitude": 101.846341,
    "category": "7-Eleven Store"
  },
  {
    "id": "1867",
    "name": "Bdr Seri Alam Masai (24 hrs)",
    "street": "No. 51, Ground Floor &amp; Basement, Jalan Bina 1, Bandar Seri Alam",
    "city": "Masai",
    "state": "Johor",
    "postcode": "81750",
    "latitude": 1.504731,
    "longitude": 103.873463,
    "category": "7-Eleven Store"
  },
  {
    "id": "1069",
    "name": "Bdr Seri Impian Kluang JOH (24 hrs)",
    "street": "No 203 (GF), Jalan Seri Impian 8/1D, Bandar Seri Impian",
    "city": "Kluang",
    "state": "Johor",
    "postcode": "86000",
    "latitude": 1.98822,
    "longitude": 103.367218,
    "category": "7-Eleven Store"
  },
  {
    "id": "2037",
    "name": "Bdr Seri Putra, KJG",
    "street": "No 12 (GF), Jalan Seri Putra 3/13, Bandar Seri Putra",
    "city": "Kajang",
    "state": "Selangor",
    "postcode": "43000",
    "latitude": 2.887315,
    "longitude": 101.779838,
    "category": "7-Eleven Store"
  },
  {
    "id": "2229",
    "name": "Bdr Sri Botani PK (24 hrs)",
    "street": "No 26 (GF), Jalan Palma A/1, Bandar Seri Botani",
    "city": "Ipoh",
    "state": "Perak",
    "postcode": "31350",
    "latitude": 4.53703,
    "longitude": 101.105219,
    "category": "7-Eleven Store"
  },
  {
    "id": "478",
    "name": "Bdr Sri Gombak",
    "street": "No. 57 (GF), Jalan SG 3/1, Pusat Bandar Sri Gombak",
    "city": "Batu Caves",
    "state": "Selangor",
    "postcode": "68100",
    "latitude": 3.240857,
    "longitude": 101.705053,
    "category": "7-Eleven Store"
  },
  {
    "id": "868",
    "name": "Bdr Sri Jempol N9 (24 hrs)",
    "street": "No. 228 (GF), Jalan Serting Utama 4/3, Puast Perniagaan Jempol",
    "city": "Bandar Seri Jempol",
    "state": "Negeri Sembilan",
    "postcode": "72120",
    "latitude": 2.891982,
    "longitude": 102.408025,
    "category": [
      "7-Eleven Store",
      "ATM Available"
    ]
  },
  {
    "id": "682",
    "name": "Bdr Sri PermaisuriKL (24hrs)",
    "street": "No. 47 (GF), Jalan Sri Permaisuri 8, Bandar Sri Permaisuri",
    "city": "Cheras",
    "state": "Kuala Lumpur",
    "postcode": "56000",
    "latitude": 3.101494,
    "longitude": 101.707831,
    "category": "7-Eleven Store"
  },
  {
    "id": "619",
    "name": "Bdr Sri Putra Kajang (24 hrs)",
    "street": "No. 48 (GF), Jalan Seri Putra 1/4, Bandar Seri Putra, Bangi",
    "city": "Kajang",
    "state": "Selangor",
    "postcode": "43000",
    "latitude": 2.8849891,
    "longitude": 101.7902383,
    "category": [
      "7-Eleven Store",
      "ATM Available"
    ]
  },
  {
    "id": "2281",
    "name": "Bdr Sri Sendayan N9",
    "street": "No 764 (GF), Jalan Nusari Aman 3/1, Medan Nusari, Bandar Sri Sendayan",
    "city": "Sendayan",
    "state": "Negeri Sembilan",
    "postcode": "71900",
    "latitude": 2.660081,
    "longitude": 101.878165,
    "category": "7-Eleven Store"
  },
  {
    "id": "890",
    "name": "Bdr Tasek Mutiara Pg (24 hrs)",
    "street": "No 92 (GF) Jalan Tasek SS2, Bandar Tasek Mutiara",
    "city": "Seberang Perai",
    "state": "Penang",
    "postcode": "14120",
    "latitude": 5.284306,
    "longitude": 100.490312,
    "category": "7-Eleven Store"
  },
  {
    "id": "998",
    "name": "Bdr Teknologi Kajang (24 hrs)",
    "street": "No. 64 (GF) Jalan 1/2, Seksyen 1, Bandar Teknologi Kajang",
    "city": "Kajang",
    "state": "Selangor",
    "postcode": "43500",
    "latitude": 2.972723,
    "longitude": 101.828753,
    "category": [
      "7-Eleven Store",
      "ATM Available"
    ]
  },
  {
    "id": "332",
    "name": "Bdr Tun Razak KL (24hrs)",
    "street": "No 72 Block 5, Jalan Jujur, Bandar Tun Razak",
    "city": "Cheras",
    "state": "Kuala Lumpur",
    "postcode": "56000",
    "latitude": 3.087701,
    "longitude": 101.720548,
    "category": [
      "7-Eleven Store",
      "ATM Available"
    ]
  },
  {
    "id": "550",
    "name": "Bdr Tunggal N9",
    "street": "No 3 (GF), Jalan Dato Bandar Tunggal",
    "city": "Seremban",
    "state": "Negeri Sembilan",
    "postcode": "70000",
    "latitude": 2.728939,
    "longitude": 101.93771,
    "category": "7-Eleven Store"
  },
  {
    "id": "1014",
    "name": "Bdr Universiti Prk (24 hrs)",
    "street": "No 19 (GF) Jalan PP1, Bandar Universiti, Seri Iskandar",
    "city": "Tronoh",
    "state": "Perak",
    "postcode": "31750",
    "latitude": 4.364338,
    "longitude": 100.977587,
    "category": "7-Eleven Store"
  },
  {
    "id": "2617",
    "name": "BdrBaruPokokSena Kdh",
    "street": "No. 1 (GF), Jalan Sena, Taman Bandar Baru",
    "city": "Pokok Sena",
    "state": "Kedah",
    "postcode": "6400",
    "latitude": 6.166435,
    "longitude": 100.5085,
    "category": "7-Eleven Store"
  },
  {
    "id": "2459",
    "name": "BdrKinrara 2 Puchong",
    "street": "No 5 (GF), Jalan BK 2/11, Bandar Kinrara",
    "city": "Puchong",
    "state": "Selangor",
    "postcode": "47180",
    "latitude": 3.052009,
    "longitude": 101.643576,
    "category": "7-Eleven Store"
  },
  {
    "id": "2437",
    "name": "BdrKinrara 5 Puchong",
    "street": "No 5 (GF), Jalan BK 5/12A, Bandar Kinrara",
    "city": "Puchong",
    "state": "Selangor",
    "postcode": "47180",
    "latitude": 3.037781,
    "longitude": 101.646918,
    "category": "7-Eleven Store"
  },
  {
    "id": "2659",
    "name": "BdrLagendaMantin N9 (24 hrs)",
    "street": "No. 2A (GF), Jalan UTL 6, Bandar Universiti Teknologi Lagenda",
    "city": "Mantin",
    "state": "Negeri Sembilan",
    "postcode": "71700",
    "latitude": 2.821966,
    "longitude": 101.871197,
    "category": [
      "7-Eleven Store",
      "ATM Available"
    ]
  },
  {
    "id": "2536",
    "name": "BdrPerdaB.MertajamPg (24 hrs)",
    "street": "Lot 484 (GF), Jalan Permatang Rawa, Bandar Perda",
    "city": "Bukit Mertajam",
    "state": "Penang",
    "postcode": "14000",
    "latitude": 5.366273,
    "longitude": 100.437915,
    "category": "7-Eleven Store"
  },
  {
    "id": "2514",
    "name": "BdrPutraPermaiS.Kemb",
    "street": "No 20 (GF), Jalan BPP 8/4, Bandar Putra Permai",
    "city": "Seri Kembangan",
    "state": "Selangor",
    "postcode": "43300",
    "latitude": 2.986759,
    "longitude": 101.665369,
    "category": "7-Eleven Store"
  },
  {
    "id": "2544",
    "name": "BdrSriAlamMasai Jhr",
    "street": "No 21 (GF), Jalan Suria 7, Bandar Seri Alam",
    "city": "Masai",
    "state": "Johor",
    "postcode": "81750",
    "latitude": 1.494269,
    "longitude": 103.874295,
    "category": "7-Eleven Store"
  },
  {
    "id": "2553",
    "name": "BdrTenggaraKulai Jhr (24 hrs)",
    "street": "No 12 (GF), Jalan Anggerik 2/1, Taman Anggerik Tenggara, Bandar Tenggara",
    "city": "Kulai",
    "state": "Johor",
    "postcode": "81000",
    "latitude": 1.847816,
    "longitude": 103.61783,
    "category": [
      "7-Eleven Store",
      "ATM Available"
    ]
  },
  {
    "id": "2465",
    "name": "BdrTskSelatan Cheras",
    "street": "No 39 (GF), Jalan Metro Centre, Jalan 8/146, Bandar Tasik Selatan",
    "city": "Sungai Besi",
    "state": "Kuala Lumpur",
    "postcode": "57000",
    "latitude": 3.071851,
    "longitude": 101.711764,
    "category": "7-Eleven Store"
  },
  {
    "id": "1778",
    "name": "Beach Street,PG",
    "street": "No. 4 Beach Street",
    "city": "Georgetown",
    "state": "Penang",
    "postcode": "10300",
    "latitude": 5.418206,
    "longitude": 100.342955,
    "category": "7-Eleven Store"
  },
  {
    "id": "959",
    "name": "Beaufort Commercial (24 hrs)",
    "street": "Lot No 107 (GF), Block N Phase 2, 1 Beaufort Commercial Center",
    "city": "Beaufort",
    "state": "Sabah",
    "postcode": "89808",
    "latitude": 5.343741,
    "longitude": 115.734996,
    "category": "7-Eleven Store"
  },
  {
    "id": "507",
    "name": "Beecham Timur Prk (24 hrs)",
    "street": "No. 60 (GF), Persiaran Bercham Timur 20, Pusat Bandar Baru Bercham",
    "city": "Ipoh",
    "state": "Perak",
    "postcode": "31400",
    "latitude": 4.63643,
    "longitude": 101.134726,
    "category": "7-Eleven Store"
  },
  {
    "id": "1703",
    "name": "Behrang 2020, Tjg Malim,PRK (24 hrs)",
    "street": "No 102 (GF) Jalan Wawasan Dagangan 1, Bandar Behrang 2020",
    "city": "Tanjung Malim",
    "state": "Perak",
    "postcode": "35800",
    "latitude": 3.7232655,
    "longitude": 101.4730096,
    "category": [
      "7-Eleven Store",
      "ATM Available"
    ]
  },
  {
    "id": "147",
    "name": "Behrang Residence PRK (24 hrs)",
    "street": "No 60-A (GF), Jalan Residen 1, Behrang Residen",
    "city": "Behrang",
    "state": "Perak",
    "postcode": "435950",
    "latitude": 3.74367,
    "longitude": 101.457503,
    "category": "CAFE by 7-Eleven"
  },
  {
    "id": "1422",
    "name": "Bell Avenue, Sepang (24 hrs)",
    "street": "R-G-18, Ground Floor, Bell Avenue, Jalan Sunsuria, Bandar Sunsuria",
    "city": "Sepang",
    "state": "Selangor",
    "postcode": "43900",
    "latitude": 2.828873,
    "longitude": 101.705336,
    "category": "7-Eleven Store"
  },
  {
    "id": "1331",
    "name": "Benoni Comercial Papar SBH (24 hrs)",
    "street": "Lot 139 (GF), Benoni Commercial Centre, Jalan Bukit Manggis",
    "city": "Papar",
    "state": "Sabah",
    "postcode": "89600",
    "latitude": 5.699817,
    "longitude": 115.936199,
    "category": "7-Eleven Store"
  },
  {
    "id": "711",
    "name": "Bentayan Muar Jhr (24 hrs)",
    "street": "No 1 (GF), Jalan Bentayan",
    "city": "Muar",
    "state": "Johor",
    "postcode": "84000",
    "latitude": 2.050722,
    "longitude": 102.57091,
    "category": "7-Eleven Store"
  },
  {
    "id": "2475",
    "name": "Bentong II Phg (24 hrs)",
    "street": "No P9 (GF), Pusat Perniagaan Mutiara Gemilang, Jalan Tras",
    "city": "Bentong",
    "state": "Pahang",
    "postcode": "28700",
    "latitude": 3.539034,
    "longitude": 101.901885,
    "category": "7-Eleven Store"
  },
  {
    "id": "847",
    "name": "Bera Phg (24 hrs)",
    "street": "No 2 (GF), Lorong Kerayong Makmur 1, Taman Kerayong Makmur",
    "city": "Bandar Bera",
    "state": "Pahang",
    "postcode": "28200",
    "latitude": 3.263266,
    "longitude": 102.445345,
    "category": "7-Eleven Store"
  },
  {
    "id": "2346",
    "name": "Berangan, Kluang JHR",
    "street": "No 33 Bawah, Jalan Berangan, Pasar Baru",
    "city": "Kluang",
    "state": "Johor",
    "postcode": "86000",
    "latitude": 2.040561,
    "longitude": 103.32133,
    "category": "7-Eleven Store"
  },
  {
    "id": "2283",
    "name": "Bercham Height PRK (24 hrs)",
    "street": "No 6 (GF), Hala Bercham Timur 11, Bercham Height, 31400 Bercham, Ipoh, Perak &quot;&quot;No 6 (GF), Hala Bercham Timur 11, Bercham Height, Bercham",
    "city": "Ipoh",
    "state": "Perak",
    "postcode": "31400",
    "latitude": 4.6317,
    "longitude": 101.131889,
    "category": "7-Eleven Store"
  },
  {
    "id": "1101",
    "name": "Bercham Raya, Prk (24 hrs)",
    "street": "No 6 (GF), Dataran Perpaduan 2, Taman Bercham Raya",
    "city": "Ulu Kinta",
    "state": "Perak",
    "postcode": "31150",
    "latitude": 4.637229,
    "longitude": 101.146271,
    "category": [
      "7-Eleven Store",
      "ATM Available"
    ]
  },
  {
    "id": "1380",
    "name": "Bercham Selatan, Ipoh (24 hrs)",
    "street": "No 28, Ground Floor, Medan Bercham Selatan 1, Medan Bercham Selatan",
    "city": "Ipoh",
    "state": "Perak",
    "postcode": "31400",
    "latitude": 4.624098,
    "longitude": 101.120446,
    "category": "7-Eleven Store"
  },
  {
    "id": "2090",
    "name": "Beris Kubur Besar Kltn (24 hrs)",
    "street": "PT No 758-A (GF), Jalan Bachok, Kg Beris Kubur Besar",
    "city": "Bachok",
    "state": "Kelantan",
    "postcode": "16050",
    "latitude": 6.072488,
    "longitude": 102.360692,
    "category": [
      "7-Eleven Store",
      "ATM Available"
    ]
  },
  {
    "id": "765",
    "name": "Berjaya Indah,B.M Pg (24 hrs)",
    "street": "No 2934 (GF) Jalan Berjaya Indah",
    "city": "Bukit Mertajam",
    "state": "Penang",
    "postcode": "14000",
    "latitude": 5.350544,
    "longitude": 100.470032,
    "category": "7-Eleven Store"
  },
  {
    "id": "434",
    "name": "Berjaya KL",
    "street": "GF Plaza Berjaya",
    "city": "Jalan Imbi",
    "state": "Kuala Lumpur",
    "postcode": "55100",
    "latitude": 3.143052,
    "longitude": 101.709717,
    "category": "7-Eleven Store"
  },
  {
    "id": "1524",
    "name": "Berjaya Waterfront JB (24 hrs)",
    "street": "Lot No. 1.28, Level 1, Berjaya Waterfront Complex Johor Bahru, No. 88, Jalan Ibrahim Sultan, Stulang Laut",
    "city": "Johor Bahru",
    "state": "Johor",
    "postcode": "80300",
    "latitude": 1.4707485,
    "longitude": 103.783046,
    "category": "7-Eleven Store"
  },
  {
    "id": "563",
    "name": "Bertam Indah Pg (24 hrs)",
    "street": "No 11 (GF) Lorong Bertam Indah 1, Taman Bertam Indah",
    "city": "Kepala Batas",
    "state": "Penang",
    "postcode": "13200",
    "latitude": 5.51934,
    "longitude": 100.436502,
    "category": "7-Eleven Store"
  },
  {
    "id": "2654",
    "name": "BertamP'danaKBatasPg (24 hrs)",
    "street": "No 10 (GF) Jalan Dagangan 2, Bertam Perdana 1",
    "city": "Kepala Batas",
    "state": "Penang",
    "postcode": "13200",
    "latitude": 5.517359,
    "longitude": 100.447679,
    "category": "7-Eleven Store"
  },
  {
    "id": "898",
    "name": "Berverly Hills KK (24 hrs)",
    "street": "No 13-0 (GF), Beverly Hills Plaza, Jalan Bundusan",
    "city": "Kota Kinabalu",
    "state": "Sabah",
    "postcode": "88300",
    "latitude": 5.939252,
    "longitude": 116.101871,
    "category": [
      "7-Eleven Store",
      "ATM Available"
    ]
  },
  {
    "id": "629",
    "name": "Bestari Jaya Sel (24 hrs)",
    "street": "No. A-2 (GF), Main Road",
    "city": "Batang Berjuntai",
    "state": "Selangor",
    "postcode": "45600",
    "latitude": 3.377953,
    "longitude": 101.4062371,
    "category": [
      "7-Eleven Store",
      "ATM Available"
    ]
  },
  {
    "id": "2502",
    "name": "BgnKoperasiPolis KL (24 hrs)",
    "street": "Annex Floor, Bangunan Koperasi Polis, No 1",
    "city": "Jalan Sulaiman",
    "state": "Kuala Lumpur",
    "postcode": "50000",
    "latitude": 3.139137,
    "longitude": 101.696875,
    "category": "7-Eleven Store"
  },
  {
    "id": "130",
    "name": "Bidor Perak (24 hrs)",
    "street": "No 6 (GF) (PT 2322), Jalan Persatuan",
    "city": "Bidor",
    "state": "Perak",
    "postcode": "35500",
    "latitude": 4.112825,
    "longitude": 101.287173,
    "category": "CAFE by 7-Eleven"
  },
  {
    "id": "2225",
    "name": "Binjai Kemaman TRG (24 hrs)",
    "street": "Lot No PT 7548 (GF), Jalan Air Putih, Kg Batu 3, Binjai",
    "city": "Chukai",
    "state": "Terengganu",
    "postcode": "24000",
    "latitude": 4.2328277,
    "longitude": 103.3801621,
    "category": "7-Eleven Store"
  },
  {
    "id": "264",
    "name": "Binjai Rendah K. TRG (24 hrs)",
    "street": "Lot No 18187 (GF), Taman Mewah, Bukit Payong",
    "city": "Marang",
    "state": "Terengganu",
    "postcode": "21400",
    "latitude": 5.203444,
    "longitude": 103.103407,
    "category": [
      "CAFE by 7-Eleven",
      "ATM Available"
    ]
  },
  {
    "id": "1239",
    "name": "Bintang Fairlane, KL (24 hrs)",
    "street": "Retail 2, A-0-01, Ground Floor, Block A, Bintang Fairlane Residence, No 23",
    "city": "Jalan Padang Walter Grenier",
    "state": "Kuala Lumpur",
    "postcode": "55100",
    "latitude": 3.145068,
    "longitude": 101.712736,
    "category": [
      "7-Eleven Store",
      "ATM Available"
    ]
  },
  {
    "id": "315",
    "name": "Bintang Walk KL (24hrs)",
    "street": "No 144, Jalan Bukit Bintang",
    "city": "Bukit Bintang",
    "state": "Kuala Lumpur",
    "postcode": "55100",
    "latitude": 3.147396,
    "longitude": 101.711901,
    "category": [
      "7-Eleven Store",
      "ATM Available"
    ]
  },
  {
    "id": "1999",
    "name": "Bintulu Sentral Btu (24 hrs)",
    "street": "No 147 (GF), Bintulu Sentral, Jalan Tanjung Kidurong",
    "city": "Bintulu",
    "state": "Sarawak",
    "postcode": "97000",
    "latitude": 3.202072,
    "longitude": 113.060386,
    "category": "7-Eleven Store"
  },
  {
    "id": "1059",
    "name": "Bistari Jaya, Bedong KDH (24 hrs)",
    "street": "No 20A (GF), Jalan Bistari Jaya Utama, Taman Bistari Utama",
    "city": "Bedong",
    "state": "Kedah",
    "postcode": "8100",
    "latitude": 5.713874,
    "longitude": 100.519269,
    "category": "7-Eleven Store"
  },
  {
    "id": "437",
    "name": "Bkt Anggerik Cheras",
    "street": "No. 20 (GF), Jalan Bukit Anggerik",
    "city": "Cheras",
    "state": "Kuala Lumpur",
    "postcode": "56000",
    "latitude": 3.057899,
    "longitude": 101.748488,
    "category": "7-Eleven Store"
  },
  {
    "id": "865",
    "name": "Bkt Angsana Cheras",
    "street": "No. 7 (GF), Jalan Angsana 1, Taman Bukit Angsana",
    "city": "Cheras",
    "state": "Kuala Lumpur",
    "postcode": "56000",
    "latitude": 3.061215,
    "longitude": 101.749896,
    "category": "7-Eleven Store"
  },
  {
    "id": "4",
    "name": "Bkt Antarabangsa KL (24hrs)",
    "street": "No. 18 (GF), Jalan Wangsa 2, Bukit Antarabangsa",
    "city": "Ampang",
    "state": "Selangor",
    "postcode": "68100",
    "latitude": 3.191593,
    "longitude": 101.770742,
    "category": "CAFE by 7-Eleven"
  },
  {
    "id": "2304",
    "name": "Bkt Bauk Dungun, TRG (24 hrs)",
    "street": "Lot 3205 (GF), Kedai Jalan Paka, Kg Batu 5, Taman Bukit Baut 1",
    "city": "Dungun",
    "state": "Terengganu",
    "postcode": "23000",
    "latitude": 4.714399,
    "longitude": 103.418394,
    "category": "7-Eleven Store"
  },
  {
    "id": "1085",
    "name": "Bkt Desa Semantan Temerloh PHG (24 hrs)",
    "street": "No 57 (GF), Jalan BDS 1, Bukit Desa Semantan",
    "city": "Temerloh",
    "state": "Pahang",
    "postcode": "28000",
    "latitude": 3.472535,
    "longitude": 102.38562,
    "category": "7-Eleven Store"
  },
  {
    "id": "525",
    "name": "Bkt Gambir Pg (24 hrs)",
    "street": "No 1-1-06 (GF) University Place",
    "city": "Halaman Bukit Gambir",
    "state": "Penang",
    "postcode": "11700",
    "latitude": 5.356905,
    "longitude": 100.292625,
    "category": "7-Eleven Store"
  },
  {
    "id": "635",
    "name": "Bkt Gambir, JB (24 hrs)",
    "street": "No 17 (GF) Jalan Gambir 1, Bandar Baru Bukit Gambir",
    "city": "Bukit Gambir",
    "state": "Johor",
    "postcode": "84800",
    "latitude": 2.211876,
    "longitude": 102.653691,
    "category": "7-Eleven Store"
  },
  {
    "id": "334",
    "name": "Bkt Jambul Pg",
    "street": "No 36 (GF) Jalan Tun Dr Awang",
    "city": "Bayan Lepas",
    "state": "Penang",
    "postcode": "11900",
    "latitude": 5.3156674,
    "longitude": 100.2756456,
    "category": "7-Eleven Store"
  },
  {
    "id": "466",
    "name": "Bkt Kempas JB",
    "street": "No. 96 Jalan Bukit Kempas 1/18, Taman Bukit Kempas",
    "city": "Johor Bahru",
    "state": "Johor",
    "postcode": "83100",
    "latitude": 1.526994,
    "longitude": 103.6956,
    "category": "7-Eleven Store"
  },
  {
    "id": "521",
    "name": "Bkt Mertajam II Pg (24 hrs)",
    "street": "No 65 (GF) Jalan Aston",
    "city": "Bukit Mertajam",
    "state": "Penang",
    "postcode": "14000",
    "latitude": 5.363097,
    "longitude": 100.463431,
    "category": "7-Eleven Store"
  },
  {
    "id": "498",
    "name": "Bkt Mertajam Pg (24 hrs)",
    "street": "No 39 (GF) Jalan Tembikai, Taman Mutiara",
    "city": "Bukit Mertajam",
    "state": "Penang",
    "postcode": "14000",
    "latitude": 5.363399,
    "longitude": 100.44497,
    "category": "7-Eleven Store"
  },
  {
    "id": "941",
    "name": "Bkt Payong Trg (24 hrs)",
    "street": "Lot PT No 82 (GF) Jalan Kuala Berang, Bukit Payong",
    "city": "Marang",
    "state": "Terengganu",
    "postcode": "21400",
    "latitude": 5.2119501,
    "longitude": 103.1037871,
    "category": [
      "7-Eleven Store",
      "ATM Available"
    ]
  },
  {
    "id": "827",
    "name": "Bkt Rahman Putra SA (24 hrs)",
    "street": "No. 19 (GF), Jalan BPR 7/2, Bukit Rahman Putra",
    "city": "Sungai Buloh",
    "state": "Selangor",
    "postcode": "40160",
    "latitude": 3.229155,
    "longitude": 101.557671,
    "category": [
      "7-Eleven Store",
      "ATM Available"
    ]
  },
  {
    "id": "781",
    "name": "Bkt Rangin Phg (24 hrs)",
    "street": "No K7 (GF), Jalan Permatang Badak Baru 2, Bukit Rangin Fasa 4",
    "city": "Kuantan",
    "state": "Pahang",
    "postcode": "25150",
    "latitude": 3.799297,
    "longitude": 103.26443,
    "category": [
      "7-Eleven Store",
      "ATM Available"
    ]
  },
  {
    "id": "2634",
    "name": "Bkt Sekilau Phg (24 hrs)",
    "street": "No B108 (GF) Jalan Bukit Sekilau",
    "city": "Kuantan",
    "state": "Pahang",
    "postcode": "25200",
    "latitude": 3.821634,
    "longitude": 103.322124,
    "category": [
      "7-Eleven Store",
      "ATM Available"
    ]
  },
  {
    "id": "726",
    "name": "Bkt Serdang, SEL",
    "street": "No. 6 (GF), Jalan 4/1, Taman Bukit Serdang, Sek 4",
    "city": "Seri Kembangan",
    "state": "Selangor",
    "postcode": "43300",
    "latitude": 3.021804,
    "longitude": 101.699026,
    "category": [
      "7-Eleven Store",
      "ATM Available"
    ]
  },
  {
    "id": "1728",
    "name": "Bkt Siput Segamat JHR (24 hrs)",
    "street": "No 13 (GF), Jalan Emas 6, Taman Bukit Baru, Bukit Siput",
    "city": "Segamat",
    "state": "Johor",
    "postcode": "85020",
    "latitude": 2.4833038,
    "longitude": 102.8521712,
    "category": "7-Eleven Store"
  },
  {
    "id": "18",
    "name": "Bkt Tinggi City KLG",
    "street": "No 36 (GF), Lorong Batu Nilam 4B, Bandar Bukit Tinggi",
    "city": "Klang",
    "state": "Selangor",
    "postcode": "41200",
    "latitude": 3.007126,
    "longitude": 101.435673,
    "category": "CAFE by 7-Eleven"
  },
  {
    "id": "474",
    "name": "Bkt Tinggi Klg (24 hrs)",
    "street": "No. 66-0-1, Lorong Batu Nilam 1B, Bandar Bukit Tinggi",
    "city": "Klang",
    "state": "Selangor",
    "postcode": "41200",
    "latitude": 3.008646,
    "longitude": 101.439646,
    "category": "7-Eleven Store"
  },
  {
    "id": "2656",
    "name": "BktBeruangIndah Mlk (24 hrs)",
    "street": "No. 3 (GF), Jalan BB1 1",
    "city": "Taman Bukit Beruang Indah",
    "state": "Melaka",
    "postcode": "75450",
    "latitude": 2.254547,
    "longitude": 102.277224,
    "category": "7-Eleven Store"
  },
  {
    "id": "2478",
    "name": "BktRahmanPutra 1 SA (24 hrs)",
    "street": "No 8 (GF), Jalan BRP 1/6, Bukit Rahman Putra, Sg Buloh",
    "city": "Shah Alam",
    "state": "Selangor",
    "postcode": "40160",
    "latitude": 3.209817,
    "longitude": 101.562474,
    "category": "7-Eleven Store"
  },
  {
    "id": "1267",
    "name": "BMC Mall, Mahkota Cheras SEL",
    "street": "Lot G-23, Ground Floor, BMC Mall, Jalan Temenggung 21/9, Bandar Mahkota Cheras, Batu 9",
    "city": "Cheras",
    "state": "Selangor",
    "postcode": "43200",
    "latitude": 3.0549073,
    "longitude": 101.7871801,
    "category": "7-Eleven Store"
  },
  {
    "id": "1984",
    "name": "Bomba Mantin N9 (24 hrs)",
    "street": "G-17 (GF), Jalan Besar Mantin",
    "city": "Mantin",
    "state": "Negeri Sembilan",
    "postcode": "71700",
    "latitude": 2.827271,
    "longitude": 101.881186,
    "category": "7-Eleven Store"
  },
  {
    "id": "88",
    "name": "Boulevard Mid Valley KL (24hrs)",
    "street": "No. 19-G, Ground Floor, The Boulevard Mid Valley City, Lingkaran Syed Putra",
    "city": "Mid Valley",
    "state": "Kuala Lumpur",
    "postcode": "59200",
    "latitude": 3.117797,
    "longitude": 101.67642,
    "category": "CAFE by 7-Eleven"
  },
  {
    "id": "2510",
    "name": "Boulevard Miri Swk (24 hrs)",
    "street": "Lot 2451 (GF), Jalan Miri Pujut, Boulevard Commercial Centre",
    "city": "Miri",
    "state": "Sarawak",
    "postcode": "98000",
    "latitude": 4.416105,
    "longitude": 114.011553,
    "category": "7-Eleven Store"
  },
  {
    "id": "1374",
    "name": "Boulevard Pandan KL",
    "street": "Unit No G-15 (GF), 28 Boulevard, Jalan Perdana 3/10",
    "city": "Pandan Perdana",
    "state": "Kuala Lumpur",
    "postcode": "55300",
    "latitude": 3.118945,
    "longitude": 101.744711,
    "category": "7-Eleven Store"
  },
  {
    "id": "1725",
    "name": "BOULEVARD PANDAN KL (24hrs)",
    "street": "No. G-15, Ground Floor, 28 Boulevard, Jalan Perdana 3/10",
    "city": "Pandan Perdana",
    "state": "Kuala Lumpur",
    "postcode": "55300",
    "latitude": 3.1181191,
    "longitude": 101.7441073,
    "category": "7-Eleven Store"
  },
  {
    "id": "305",
    "name": "Brickfields KL (24 hrs)",
    "street": "No 243, Jalan Tun Sambanthan,",
    "city": "Brickfields",
    "state": "Kuala Lumpur",
    "postcode": "50470",
    "latitude": 3.128676,
    "longitude": 101.683705,
    "category": "7-Eleven Store"
  },
  {
    "id": "1289",
    "name": "Brighton Square Kuching SWK",
    "street": "No. 18 (GF), Lot 7691, Block 16, Brighton Square, Jalan Song",
    "city": "Kuching",
    "state": "Sarawak",
    "postcode": "93350",
    "latitude": 1.5218325,
    "longitude": 110.3559994,
    "category": "7-Eleven Store"
  },
  {
    "id": "2048",
    "name": "Brinchang Cameron PK (24 hrs)",
    "street": "No B1-3A-G Brinchang Square Jalan Besar Brinchang",
    "city": "Cameron Highlands",
    "state": "Pahang",
    "postcode": "39100",
    "latitude": 4.493895,
    "longitude": 101.388649,
    "category": "7-Eleven Store"
  },
  {
    "id": "83",
    "name": "BSP 21, Bandar Saujana Putra SEL",
    "street": "S-G-2, BSP 21, Persiaran Saujana Putra Utama, Bandar Saujana Putra",
    "city": "Jenjarom",
    "state": "Selangor",
    "postcode": "42610",
    "latitude": 2.943662,
    "longitude": 101.588155,
    "category": "CAFE by 7-Eleven"
  },
  {
    "id": "447",
    "name": "Bt 3 Cheras",
    "street": "No 534 (GF)",
    "city": "Cheras",
    "state": "Kuala Lumpur",
    "postcode": "56000",
    "latitude": 3.12028,
    "longitude": 101.728621,
    "category": "7-Eleven Store"
  },
  {
    "id": "876",
    "name": "BT 6, Pekan Meru Klg (24 hrs)",
    "street": "No. 111, (GF) Jalan Meru Batu 6, Pekan Meru",
    "city": "Klang",
    "state": "Selangor",
    "postcode": "41050",
    "latitude": 3.13302,
    "longitude": 101.440155,
    "category": "7-Eleven Store"
  },
  {
    "id": "1702",
    "name": "BT GAJAH TRANSIT PER (24 hrs)",
    "street": "No 3 (GF), Laluan BG Transit 2, Taman Batu Gajah Transit",
    "city": "Batu Gajah",
    "state": "Perak",
    "postcode": "31000",
    "latitude": 4.4878604,
    "longitude": 101.0303354,
    "category": "7-Eleven Store"
  },
  {
    "id": "950",
    "name": "Bt Nilam 34, Klang",
    "street": "K-18, Block Q, Rumah Pangsa Bukit Tinggi 2, Jalan Batu Nilam 34, Bandar Bukit Tinggi 2",
    "city": "Klang",
    "state": "Selangor",
    "postcode": "41200",
    "latitude": 2.998748,
    "longitude": 101.430821,
    "category": "7-Eleven Store"
  },
  {
    "id": "2357",
    "name": "BT7 Teluk Kemang PD",
    "street": "Lot 7/223 (GF), Jalan Pantai Batu 7, Teluk Kemang",
    "city": "Port Dickson",
    "state": "Negeri Sembilan",
    "postcode": "71050",
    "latitude": 2.458196,
    "longitude": 101.856186,
    "category": "7-Eleven Store"
  },
  {
    "id": "1043",
    "name": "BTS 1st Floor, KL",
    "street": "Lot 01-21, First Floor, Berjaya Times Square, No 1 Jalan Imbi",
    "city": "Jalan Imbi",
    "state": "Kuala Lumpur",
    "postcode": "55100",
    "latitude": 3.142356,
    "longitude": 101.710017,
    "category": "7-Eleven Store"
  },
  {
    "id": "885",
    "name": "BTS 5 Flr Theme Park, KL",
    "street": "Lot 05-103, Level 5, Berjaya Times Square, no. 1",
    "city": "Jalan Imbi",
    "state": "Kuala Lumpur",
    "postcode": "55100",
    "latitude": 3.141992,
    "longitude": 101.709942,
    "category": "7-Eleven Store"
  },
  {
    "id": "63",
    "name": "BTS GroundFlr KL (24hrs)",
    "street": "Lot G-18A (GF), Berjaya Times Square, No 1 Jalan Imbi",
    "city": "Jalan Imbi",
    "state": "Kuala Lumpur",
    "postcode": "55100",
    "latitude": 3.1425177,
    "longitude": 101.7103847,
    "category": [
      "CAFE by 7-Eleven",
      "ATM Available"
    ]
  },
  {
    "id": "2611",
    "name": "Bukit Bakri Muar JB",
    "street": "No. 76 (GF), Jalan Bukit Bakri, Batu 6, Bakri",
    "city": "Muar",
    "state": "Johor",
    "postcode": "84000",
    "latitude": 2.04189,
    "longitude": 102.656384,
    "category": "7-Eleven Store"
  },
  {
    "id": "71",
    "name": "Bukit Beruntung Rawang Sel (24 hrs)",
    "street": "No 55 (GF), Jalan Adenium 2G/8, Seksyen BB5",
    "city": "Bukit Beruntung",
    "state": "Selangor",
    "postcode": "48300",
    "latitude": 3.4183152,
    "longitude": 101.5566725,
    "category": [
      "CAFE by 7-Eleven",
      "ATM Available"
    ]
  },
  {
    "id": "1960",
    "name": "Bukit Bunga, KLTN (24 hrs)",
    "street": "PT 1994 (Lot 2942) GF, Bandar Baru Bukit Bunga, Bukit Bunga",
    "city": "Tanah Merah",
    "state": "Kelantan",
    "postcode": "17700",
    "latitude": 5.828212,
    "longitude": 101.897713,
    "category": "7-Eleven Store"
  },