[
  {
    "id": "1059",
    "code": "222",
    "name": "Petaling Jaya",
    "street": "No.58, Jalan 14/48",
    "city": "Petaling Jaya",
    "state": "Selangor",
    "postcode": "46100",
    "phone": "+6016-3308-454",
    "latitude": 3.0968912392704135,
    "longitude": 101.62956179416832,
    "category": "KK Super Mart"
  },
  {
    "id": "1227",
    "code": "AAV",
    "name": "Ampang Avenue",
    "street": "No.18, Jalan Avenue 3, Ampang Avenue",
    "city": "Ampang",
    "state": "Selangor",
    "postcode": "68000",
    "phone": "+6016-2131-308",
    "latitude": 3.1356909132655417,
    "longitude": 101.77020245482599,
    "category": [
      "KK Super Mart",
      "KK ATM"
    ]
  },
  {
    "id": "1265",
    "code": "ABA",
    "name": "Ampang, Bukit Antarabangsa",
    "street": "No:6A, Jalan Wangsa 2, Taman Wangsa Ukay, Bukit Antarabangsa",
    "city": "Ampang",
    "state": "Selangor",
    "postcode": "68000",
    "phone": "+6016-3308-120",
    "latitude": 3.192242377138078,
    "longitude": 101.77085599416881,
    "category": "KK Super Mart"
  },
  {
    "id": "1307",
    "code": "ABT",
    "name": "Ampang, Taman Bukit Teratai",
    "street": "B-G-08, Jalan Teratai 1/2E, Taman Bukit Teratai",
    "city": "Ampang",
    "state": "Selangor",
    "postcode": "68000",
    "phone": "+6010-9653-308",
    "latitude": 3.112253984385643,
    "longitude": 101.76472277015702,
    "category": [
      "KK Super Mart",
      "KK ATM"
    ]
  },
  {
    "id": "1478",
    "code": "ACG",
    "name": "Ampang, City Garden Commercial Centre",
    "street": "1-G-1, Block 1, City Garden Commercial Centre, Jalan Nirwana 1, Taman Nirwana",
    "city": "Ampang",
    "state": "Selangor",
    "postcode": "68000",
    "phone": "+6010-9207-308",
    "latitude": 3.146474888081485,
    "longitude": 101.75076309416862,
    "category": "KK Super Mart"
  },
  {
    "id": "1637",
    "code": "ADS",
    "name": "Ampang, Pusat Dagangan Syadani",
    "street": "No.5, Pusat Dagangan Syadani, Jalan PDS 1, Off Jalan AU3/1, Ampang Ulu Kelang",
    "city": "Ampang",
    "state": "Kuala Lumpur",
    "postcode": "54200",
    "phone": "+60113-6739-308",
    "latitude": 3.1826360794480766,
    "longitude": 101.75768623649736,
    "category": "KK Super Mart"
  },
  {
    "id": "1542",
    "code": "AHK",
    "name": "Ampang, Hulu Kelang",
    "street": "No.53, Jalan Awan, Kampung Kuala Ampang, Hulu Kelang",
    "city": "Ampang",
    "state": "Selangor",
    "postcode": "68000",
    "phone": "+60113-3196-308",
    "latitude": 3.1661169584805386,
    "longitude": 101.74888973649726,
    "category": "KK Super Mart"
  },
  {
    "id": "1097",
    "code": "AHL",
    "name": "Ampang Hilir",
    "street": "No.1, Blok A Jalan Excella, Excella 3, Off Jalan Ampang Putra, Taman Ampang Hilir",
    "city": "Ampang",
    "state": "Selangor",
    "postcode": "68000",
    "phone": "+6016-3308-451",
    "latitude": 3.15078758705699,
    "longitude": 101.748142223004,
    "category": "KK Super Mart"
  },
  {
    "id": "1061",
    "code": "AJA",
    "name": "Alam Jaya",
    "street": "No.30, Jalan Alam Jaya 15, Taman Alam Jaya",
    "city": "Cheras",
    "state": "Selangor",
    "postcode": "43200",
    "phone": "+6016-3308-460",
    "latitude": 3.0808800034916692,
    "longitude": 101.76515515183964,
    "category": [
      "KK Super Mart",
      "KK ATM"
    ]
  },
  {
    "id": "1278",
    "code": "AJB",
    "name": "Jalan Besar Ampang",
    "street": "No.24, Jalan Besar Ampang, Pekan Ampang",
    "city": "Ampang",
    "state": "Selangor",
    "postcode": "68000",
    "phone": "+6016-4483-308",
    "latitude": 3.151970661560143,
    "longitude": 101.7603291364972,
    "category": "KK Super Mart"
  },
  {
    "id": "1243",
    "code": "AJM",
    "name": "Ampang, Jalan Merdeka",
    "street": "1A-00-05, Jalan Merdeka",
    "city": "Ampang",
    "state": "Selangor",
    "postcode": "68000",
    "phone": "+6016-6483-308",
    "latitude": 3.13947845852289,
    "longitude": 101.76430855482792,
    "category": [
      "KK Super Mart",
      "KK ATM"
    ]
  },
  {
    "id": "1922",
    "code": "AJY",
    "name": "Ampang Jaya",
    "street": "No.10, Lorong Kolam Air Lama 1, Ampang Jaya",
    "city": "Ampang",
    "state": "Selangor",
    "postcode": "68000",
    "phone": "+60112-6767-308",
    "latitude": 3.219355,
    "longitude": 101.7865654,
    "category": "KK Super Mart"
  },
  {
    "id": "1169",
    "code": "AKH",
    "name": "Ayer Keroh, Melaka",
    "street": "No.14, Lorong Setia 1, Ayer Keroh Heights",
    "city": "Ayer Keroh",
    "state": "Melaka",
    "postcode": "75450",
    "phone": "+6016-3308-445",
    "latitude": 2.255721831,
    "longitude": 102.29139413649294,
    "category": "KK Super Mart"
  },
  {
    "id": "1678",
    "code": "AMC",
    "name": "M-City Ampang",
    "street": "R-09-G, M-City Ampang, 326, Jalan Ampang",
    "city": "Ampang",
    "state": "Kuala Lumpur",
    "postcode": "50450",
    "phone": "+6010-9385-308",
    "latitude": 3.1599306389537896,
    "longitude": 101.74715445483837,
    "category": "KK Super Mart"
  },
  {
    "id": "1931",
    "code": "AMD2",
    "name": "Amoda (2)",
    "street": "Amoda Building, 22 Jalan Imbi",
    "city": "KL City Centre",
    "state": "Kuala Lumpur",
    "postcode": "55100",
    "phone": "+6016-3308-758",
    "latitude": 3.1435625,
    "longitude": 101.7105573,
    "category": "KK Super Mart"
  },
  {
    "id": "1258",
    "code": "AMJ",
    "name": "Ampang, Taman Mulia Jaya",
    "street": "No.3-G, Jalan Mulia 2/1, Taman Mulia Jaya",
    "city": "Ampang",
    "state": "Selangor",
    "postcode": "68000",
    "phone": "+6010-2923-308",
    "latitude": 3.1334183783763163,
    "longitude": 101.7890246941685,
    "category": [
      "KK Super Mart",
      "KK ATM"
    ]
  },
  {
    "id": "1292",
    "code": "AMW",
    "name": "Taman Ampang Mewah",
    "street": "No.G-3, Jalan Mewah 3 (Block B), Taman Ampang Mewah",
    "city": "Ampang",
    "state": "Selangor",
    "postcode": "68000",
    "phone": "+6016-9133-308",
    "latitude": 3.1441868759365863,
    "longitude": 101.76118238067569,
    "category": "KK Super Mart"
  },
  {
    "id": "1051",
    "code": "APM",
    "name": "Ampang Point Mamanda",
    "street": "No.53, Jalan Mamanda 9, Ampang Point",
    "city": "Ampang",
    "state": "Selangor",
    "postcode": "68000",
    "phone": "+6016-3308-057",
    "latitude": 3.159279210101049,
    "longitude": 101.75175142300445,
    "category": "KK Super Mart"
  },
  {
    "id": "1276",
    "code": "ARD",
    "name": "Ara Damansara",
    "street": "E-1-2, Block E, Pacific Place Commercial Centre, Jalan PJU 1A/4, Ara Damansara",
    "city": "Petaling Jaya",
    "state": "Selangor",
    "postcode": "47301",
    "phone": "+6016-2983-308",
    "latitude": 3.111718257228603,
    "longitude": 101.58590246533265,
    "category": "KK Super Mart"
  },
  {
    "id": "1544",
    "code": "ASA",
    "name": "Ampang, Sri Angsana Hilir",
    "street": "No.2, Jalan Hilir 1, Taman Sri Angsana Hilir",
    "city": "Ampang",
    "state": "Kuala Lumpur",
    "postcode": "55100",
    "phone": "+60115-1686-308",
    "latitude": 3.1485890875794493,
    "longitude": 101.74423189416859,
    "category": "KK Super Mart"
  },
  {
    "id": "1497",
    "code": "ASI",
    "name": "Ampang, Taman Seri Intan",
    "street": "No.8, Jalan Seri Intan 5, Taman Seri Intan",
    "city": "Ampang",
    "state": "Selangor",
    "postcode": "68000",
    "phone": "+6010-9875-308",
    "latitude": 3.154695116496527,
    "longitude": 101.78330350460742,
    "category": [
      "KK Super Mart",
      "KK ATM"
    ]
  },
  {
    "id": "1415",
    "code": "ATC",
    "name": "Ampang, Taman Cempaka",
    "street": "G-16, Fiesta @ Axis Pandan, Jalan Cempaka, Taman Cempaka",
    "city": "Ampang",
    "state": "Selangor",
    "postcode": "68000",
    "phone": "+6010-2308-340",
    "latitude": 3.13753537169212,
    "longitude": 101.74708169941788,
    "category": "KK Super Mart"
  },
  {
    "id": "1523",
    "code": "ATC2",
    "name": "Ampang, Taman Cempaka (2)",
    "street": "No.2, Jalan Cempaka 14, Taman Cempaka",
    "city": "Ampang",
    "state": "Selangor",
    "postcode": "68000",
    "phone": "+60111-6337-308",
    "latitude": 3.139712789685026,
    "longitude": 101.75108462300427,
    "category": "KK Super Mart"
  },
  {
    "id": "1166",
    "code": "ATD",
    "name": "Ampang, Taman Dagang",
    "street": "G-11, Dagang Avenue, Jalan Dagang B/3A, Taman Dagang",
    "city": "Ampang",
    "state": "Selangor",
    "postcode": "68000",
    "phone": "+6016-3308-441",
    "latitude": 3.1524193631030433,
    "longitude": 101.75402456081851,
    "category": "KK Super Mart"
  },
  {
    "id": "1285",
    "code": "ATK",
    "name": "Ampang, Taman Kosas",
    "street": "No.33, Jalan Kosas 1/2, Taman Kosas",
    "city": "Ampang",
    "state": "Selangor",
    "postcode": "68000",
    "phone": "+6016-6623-308",
    "latitude": 3.1468276753369904,
    "longitude": 101.77162986533283,
    "category": [
      "KK Super Mart",
      "KK ATM"
    ]
  },
  {
    "id": "1233",
    "code": "ATM",
    "name": "Ampang, Taman Muda",
    "street": "No:57, Jalan Bunga Tanjung 6A, Taman Muda",
    "city": "Ampang",
    "state": "Selangor",
    "postcode": "68000",
    "phone": "+6016-2973-308",
    "latitude": 3.1212311552822536,
    "longitude": 101.76038735183991,
    "category": "KK Super Mart"
  },
  {
    "id": "1257",
    "code": "ATP",
    "name": "Ampang, Kampung Tasek Permai",
    "street": "No.328, Kampung Tasek Permai, Kampung Tasek",
    "city": "Ampang",
    "state": "Selangor",
    "postcode": "68000",
    "phone": "+6016-5233-308",
    "latitude": 3.1290895198192157,
    "longitude": 101.78042258550836,
    "category": "KK Super Mart"
  },
  {
    "id": "1208",
    "code": "ATT",
    "name": "Ampang, Tasik Tambahan",
    "street": "No.6, Jalan 3/2, Kampung Tasik Tambahan",
    "city": "Ampang",
    "state": "Selangor",
    "postcode": "68000",
    "phone": "+6016-3308-735",
    "latitude": 3.1290616050468003,
    "longitude": 101.77609912300417,
    "category": "KK Super Mart"
  },
  {
    "id": "1367",
    "code": "AUP",
    "name": "Ampang, Taman Ukay Perdana",
    "street": "No.10, Jalan UP 1/5, Taman Ukay Perdana",
    "city": "Ampang",
    "state": "Selangor",
    "postcode": "68000",
    "phone": "+6010-2308-292",
    "latitude": 3.2041973501223646,
    "longitude": 101.7785493653331,
    "category": "KK Super Mart"
  },
  {
    "id": "1274",
    "code": "AWW",
    "name": "Jalan Wawasan Ampang",
    "street": "No.12A-G, Jalan Wawasan Ampang 2/3, Bandar Baru Ampang",
    "city": "Ampang",
    "state": "Selangor",
    "postcode": "68000",
    "phone": "+6016-7983-308",
    "latitude": 3.145684737579768,
    "longitude": 101.76799766533283,
    "category": "KK Super Mart"
  },
  {
    "id": "1532",
    "code": "BB1",
    "name": "Bukit Bintang (1)",
    "street": "No.77",
    "city": "Bukit Bintang",
    "state": "Kuala Lumpur",
    "postcode": "55100",
    "phone": "+6016-3308-259",
    "latitude": 3.1459072321572044,
    "longitude": 101.70975195616556,
    "category": [
      "KK Super Mart",
      "KK ATM"
    ]
  },
  {
    "id": "1209",
    "code": "BB2",
    "name": "Bukit Bintang (2)",
    "street": "No.27",
    "city": "Bukit Bintang",
    "state": "Kuala Lumpur",
    "postcode": "55100",
    "phone": "+6016-3308-647",
    "latitude": 3.144733239224945,
    "longitude": 101.70850089416854,
    "category": [
      "KK Super Mart",
      "KK ATM"
    ]
  },
  {
    "id": "1383",
    "code": "BB3",
    "name": "Bukit Bintang (3)",
    "street": "No.54, Jalan Bulan",
    "city": "Bukit Bintang",
    "state": "Kuala Lumpur",
    "postcode": "55100",
    "phone": "+6016-2208-325",
    "latitude": 3.1450860376840177,
    "longitude": 101.70963752165214,
    "category": "KK Super Mart"
  },
  {
    "id": "1339",
    "code": "BBA",
    "name": "Bukit Bintang, Jalan Angsoka",
    "street": "No.2, Jalan Angsoka",
    "city": "Bukit Bintang",
    "state": "Kuala Lumpur",
    "postcode": "50200",
    "phone": "+6010-2308-402",
    "latitude": 3.1483980496913415,
    "longitude": 101.70920659416856,
    "category": "KK Super Mart"
  },
  {
    "id": "1435",
    "code": "BBB",
    "name": "Bandar Baru Bangi",
    "street": "No.16, Jalan 6C/7",
    "city": "Bandar Baru Bangi",
    "state": "Selangor",
    "postcode": "43650",
    "phone": "+6010-2083-308",
    "latitude": 2.947649894840827,
    "longitude": 101.76367957492873,
    "category": "KK Super Mart"
  },
  {
    "id": "1569",
    "code": "BBB2",
    "name": "Bandar Baru Bangi (2)",
    "street": "No.8, Jalan 5C/11, Seksyen 5",
    "city": "Bandar Baru Bangi",
    "state": "Selangor",
    "postcode": "43650",
    "phone": "+6010-2677-308",
    "latitude": 2.957274431652621,
    "longitude": 101.78547746533194,
    "category": "KK Super Mart"
  },
  {
    "id": "1746",
    "code": "BBB3",
    "name": "Bandar Baru Bangi (3)",
    "street": "No.189, Jalan 8/1, Seksyen 8",
    "city": "Bandar Baru Bangi",
    "state": "Selangor",
    "postcode": "43650",
    "phone": "+6016-5771-308",
    "latitude": 3.0230823814143837,
    "longitude": 101.75794396274506,
    "category": "KK Super Mart"
  },
  {
    "id": "1946",
    "code": "BBB4",
    "name": "Bandar Baru Bangi (4)",
    "street": "No. 44, Jalan 4/11, Seksyen 4",
    "city": "Bandar Baru Bangi",
    "state": "Selangor",
    "postcode": "43650",
    "phone": "+6010-2446-308",
    "latitude": 2.9459098,
    "longitude": 101.7679872,
    "category": "KK Super Mart"
  },
  {
    "id": "1652",
    "code": "BBD",
    "name": "Banting, Taman Baiduri",
    "street": "No.61, Jalan Baiduri, Taman Baiduri",
    "city": "Banting",
    "state": "Selangor",
    "postcode": "42700",
    "phone": "+6010-2977-308",
    "latitude": 2.8008156855455804,
    "longitude": 101.49270776533106,
    "category": "KK Super Mart"
  },
  {
    "id": "1831",
    "code": "BBM",
    "name": "Banting, Bandar Mahkota Banting",
    "street": "No.1-G-11, Jalan Usahawan 2, Bandar Mahkota Banting",
    "city": "Banting",
    "state": "Selangor",
    "postcode": "42700",
    "phone": "+6016-5879-308",
    "latitude": 2.8322832117678916,
    "longitude": 101.55308566463403,
    "category": "KK Super Mart"
  },
  {
    "id": "1660",
    "code": "BBN",
    "name": "Bukit Bintang, Jalan Nagasari",
    "street": "No.24, Jalan Nagasari",
    "city": "Bukit Bintang",
    "state": "Kuala Lumpur",
    "postcode": "50200",
    "phone": "+6010-6637-308",
    "latitude": 3.149893698025361,
    "longitude": 101.70903890880471,
    "category": [
      "KK Super Mart",
      "KK ATM"
    ]
  },
  {
    "id": "1766",
    "code": "BBR",
    "name": "Banting, Banting Baru",
    "street": "No.35, Jalan BB 1/4, Taman Banting Baru",
    "city": "Banting",
    "state": "Selangor",
    "postcode": "42700",
    "phone": "+60112-6678-308",
    "latitude": 2.818480446048874,
    "longitude": 101.45667826463402,
    "category": [
      "KK Super Mart",
      "KK ATM"
    ]
  },
  {
    "id": "1080",
    "code": "BBS",
    "name": "Bandar Baru Selayang",
    "street": "No.12G, Jalan 2/12, Bandar Baru Selayang",
    "city": "Batu Caves",
    "state": "Selangor",
    "postcode": "68100",
    "phone": "+6016-3308-051",
    "latitude": 3.2574285744353206,
    "longitude": 101.6575118073608,
    "category": "KK Super Mart"
  },
  {
    "id": "1235",
    "code": "BCB",
    "name": "Batu Caves, Selayang Baru",
    "street": "No.6G, Jalan Besar, Selayang Baru",
    "city": "Batu Caves",
    "state": "Selangor",
    "postcode": "68100",
    "phone": "+6016-2972-308",
    "latitude": 3.2447651294707516,
    "longitude": 101.66878832300486,
    "category": "KK Super Mart"
  },
  {
    "id": "1289",
    "code": "BCG",
    "name": "Batu Caves, Sri Gombak",
    "street": "No.5, Jalan SG 1/6, Taman Sri Gombak",
    "city": "Batu Caves",
    "state": "Selangor",
    "postcode": "68100",
    "phone": "+6010-2413-308",
    "latitude": 3.239639152908474,
    "longitude": 101.6992854295215,
    "category": "KK Super Mart"
  },
  {
    "id": "1447",
    "code": "BCG2",
    "name": "Batu Caves, Sri Gombak (2)",
    "street": "No.47, Jalan SG 3/1, Taman Sri Gombak",
    "city": "Batu Caves",
    "state": "Selangor",
    "postcode": "68100",
    "phone": "+60111-6455-308",
    "latitude": 3.2412014030502885,
    "longitude": 101.70479504912592,
    "category": "KK Super Mart"
  },
  {
    "id": "1947",
    "code": "BCG3",
    "name": "Batu Caves, Sri Gombak (3)",
    "street": "No. 9, Jalan SG 8/7, Taman Sri Gombak",
    "city": "Batu Caves",
    "state": "Selangor",
    "postcode": "68100",
    "phone": "+6010-2558-308",
    "latitude": 3.236516,
    "longitude": 101.6816512,
    "category": "KK Super Mart"
  },
  {
    "id": "1338",
    "code": "BCK",
    "name": "Batu Caves, Taman Koperasi Polis Fasa",
    "street": "No.28, Jalan 59/10, Taman Koperasi Polis Fasa 2",
    "city": "Batu Caves",
    "state": "Kuala Lumpur",
    "postcode": "68100",
    "phone": "+6010-2308-507",
    "latitude": 3.221071732151514,
    "longitude": 101.69117817021281,
    "category": [
      "KK Super Mart",
      "KK ATM"
    ]
  },
  {
    "id": "1400",
    "code": "BCM",
    "name": "Batu Caves, Taman Sri Murni",
    "street": "No.14, Jalan 1/2D, Taman Sri Murni",
    "city": "Batu Caves",
    "state": "Kuala Lumpur",
    "postcode": "68100",
    "phone": "+6010-3683-308",
    "latitude": 3.2354454431896147,
    "longitude": 101.66142616533332,
    "category": "KK Super Mart"
  },
  {
    "id": "1177",
    "code": "BCS",
    "name": "Batu Caves, Samudera",
    "street": "No.13-G, Jalan Samudera Utara 11, Taman Samudera",
    "city": "Batu Caves",
    "state": "Selangor",
    "postcode": "68100",
    "phone": "+6016-3308-341",
    "latitude": 3.2341951552184605,
    "longitude": 101.69516219416906,
    "category": "KK Super Mart"
  },
  {
    "id": "1385",
    "code": "BDP",
    "name": "Bukit Damansara, Plaza Damansara",
    "street": "No.8, Jalan Medan Setia 2, Plaza Damansara, Bukit Damansara",
    "city": "Damansara",
    "state": "Kuala Lumpur",
    "postcode": "50490",
    "phone": "+6016-2208-907",
    "latitude": 3.1491723874408497,
    "longitude": 101.65278672300433,
    "category": "KK Super Mart"
  },
  {
    "id": "1022",
    "code": "BF",
    "name": "Brickfields",
    "street": "No.112, Jalan Tun Sambanthan",
    "city": "Brickfields",
    "state": "Kuala Lumpur",
    "postcode": "50470",
    "phone": "+6016-3308-315",
    "latitude": 3.1329625200458073,
    "longitude": 101.68762139985448,
    "category": "KK Super Mart"
  },
  {
    "id": "1273",
    "code": "BF2",
    "name": "Brickfields (2)",
    "street": "No:13, Jalan Tun Sambanthan 4",
    "city": "Brickfields",
    "state": "Kuala Lumpur",
    "postcode": "50470",
    "phone": "+6016-4883-308",
    "latitude": 3.1340142173375716,
    "longitude": 101.68928153948224,
    "category": "KK Super Mart"
  },
  {
    "id": "1965",
    "code": "BHI",
    "name": "Balakong, Taman Harmoni Indah",
    "street": "No.20, Jalan Harmoni Indah 1, Taman Harmoni Indah",
    "city": "Balakong",
    "state": "Selangor",
    "postcode": "43300",
    "phone": "+6010-2276-308",
    "latitude": 3.0256822,
    "longitude": 101.738147,
    "category": "KK Super Mart"
  },
  {
    "id": "1202",
    "code": "BIE",
    "name": "Balakong, Impian Ehsan",
    "street": "No.3, Jalan Impian, Taman Impian Ehsan",
    "city": "Balakong",
    "state": "Selangor",
    "postcode": "43300",
    "phone": "+6016-3308-604",
    "latitude": 3.0240650165781915,
    "longitude": 101.75070629416794,
    "category": "KK Super Mart"
  },
  {
    "id": "1321",
    "code": "BJJ",
    "name": "Bangi, Taman Jernang Jaya",
    "street": "No.35, Jalan Jernang Jaya 1, Taman Jernang Jaya",
    "city": "Bandar Baru Bangi",
    "state": "Selangor",
    "postcode": "43000",
    "phone": "+6010-2132-308",
    "latitude": 2.9242751795077755,
    "longitude": 101.75949522300314,
    "category": [
      "KK Super Mart",
      "KK ATM"
    ]
  },
  {
    "id": "1070",
    "code": "BJL",
    "name": "Bukit Jalil",
    "street": "No.12A, Jalan Jalil Jaya 2",
    "city": "Bukit Jalil",
    "state": "Kuala Lumpur",
    "postcode": "57000",
    "phone": "+6016-3308-034",
    "latitude": 3.0590686342971085,
    "longitude": 101.67385518547326,
    "category": "KK Super Mart"
  },
  {
    "id": "1846",
    "code": "BJL2",
    "name": "Bukit Jalil (2)",
    "street": "A-01-02, Plaza Bukit Jalil 1, Persiaran Jalil 1",
    "city": "Bukit Jalil",
    "state": "Kuala Lumpur",
    "postcode": "57000",
    "phone": "+6016-3527-308",
    "latitude": 3.053974496118697,
    "longitude": 101.67022636463429,
    "category": "KK Super Mart"
  },
  {
    "id": "1879",
    "code": "BJL3",
    "name": "Bukit Jalil (3)",
    "street": "No.50, Jalan Jalil 1, Bumi Bukit Jalil, Lebuhraya Puchong-Sungai Besi",
    "city": "Bukit Jalil",
    "state": "Kuala Lumpur",
    "postcode": "57000",
    "phone": "+60111-6365-308",
    "latitude": 3.0504514426741967,
    "longitude": 101.66997315945844,
    "category": "KK Super Mart"
  },
  {
    "id": "1904",
    "code": "BJL4",
    "name": "Bukit Jalil (4)",
    "street": "E-9-01, Persiaran Jalil 1, Pusat Bandar Bukit Jalil",
    "city": "Bukit Jalil",
    "state": "Kuala Lumpur",
    "postcode": "57000",
    "phone": "+60112-6887-308",
    "latitude": 3.0527675,
    "longitude": 101.6710931,
    "category": "KK Super Mart"
  },
  {
    "id": "1899",
    "code": "BJL5",
    "name": "Bukit Jalil (5)",
    "street": "No.23, Jalan 6/155, Bukit Jalil Intergrated Business Park",
    "city": "Bukit Jalil",
    "state": "Kuala Lumpur",
    "postcode": "58200",
    "phone": "+60112-6818-308",
    "latitude": 3.0623193,
    "longitude": 101.6639869,
    "category": "KK Super Mart"
  },
  {
    "id": "1891",
    "code": "BJY",
    "name": "Bestari Jaya",
    "street": "No.21, Jalan Sejati 1, Taman Sejati",
    "city": "Bestari Jaya",
    "state": "Selangor",
    "postcode": "45600",
    "phone": "+60112-6765-308",
    "latitude": 3.3143548,
    "longitude": 101.4115771,
    "category": "KK Super Mart"
  },
  {
    "id": "1818",
    "code": "BK5",
    "name": "Bandar Kinrara 5",
    "street": "No.7, Jalan BK 5/12A, Bandar Kinrara",
    "city": "Puchong",
    "state": "Selangor",
    "postcode": "47180",
    "phone": "+6016-2315-308",
    "latitude": 3.038073399615478,
    "longitude": 101.64678185114137,
    "category": "KK Super Mart"
  },
  {
    "id": "1364",
    "code": "BKB",
    "name": "Balakong, Kampung Baru",
    "street": "No.2, Jalan Balakong Batu 11, Kampung Baru Balakong",
    "city": "Cheras",
    "state": "Selangor",
    "postcode": "43200",
    "phone": "+6010-2308-064",
    "latitude": 3.042875594456632,
    "longitude": 101.7719949008082,
    "category": "KK Super Mart"
  },
  {
    "id": "1163",
    "code": "BKI",
    "name": "Bangi, Kajang Impian",
    "street": "No.55, Jalan Kajang Impian 1/11, Taman Kajang Impian",
    "city": "Bandar Baru Bangi",
    "state": "Selangor",
    "postcode": "43650",
    "phone": "+6016-3308-437",
    "latitude": 2.976668037591597,
    "longitude": 101.77155863940456,
    "category": "KK Super Mart"
  },
  {
    "id": "1087",
    "code": "BKL",
    "name": "Taman Berkeley",
    "street": "No.7, Lebuh Bangau, Taman Berkeley",
    "city": "Klang",
    "state": "Selangor",
    "postcode": "41150",
    "phone": "+6016-3308-066",
    "latitude": 3.0590972631424966,
    "longitude": 101.46310027753053,
    "category": "KK Super Mart"
  },
  {
    "id": "1533",
    "code": "BKM",
    "name": "Batang Kali, Jalan Meranti",
    "street": "No.49, Jalan Meranti 2B, Bandar Utama Batang Kali",
    "city": "Batang Kali",
    "state": "Selangor",
    "postcode": "44300",
    "phone": "+6016-3308-217",
    "latitude": 3.459802728584998,
    "longitude": 101.65517699417042,
    "category": "KK Super Mart"
  },
  {
    "id": "1254",
    "code": "BLG",
    "name": "Bangsar Lucky Garden",
    "street": "No.24-G, Lorong Ara Kiri 2, Bangsar Lucky Garden",
    "city": "Bangsar",
    "state": "Kuala Lumpur",
    "postcode": "59100",
    "phone": "+6016-3308-406",
    "latitude": 3.128234417795206,
    "longitude": 101.67019997016507,
    "category": "KK Super Mart"
  },
  {
    "id": "1034",
    "code": "BMC",
    "name": "Bandar Mahkota Cheras",
    "street": "No.53, Jalan Temengung 9/9, Seksyen 9, Bandar Mahkota Cheras, Batu 9 1/2 Jalan Cheras, Kajang",
    "city": "Cheras",
    "state": "Selangor",
    "postcode": "43200",
    "phone": "+6016-3308-159",
    "latitude": 3.0502931,
    "longitude": 101.7897861,
    "category": "KK Super Mart"
  },
  {
    "id": "1421",
    "code": "BMC2",
    "name": "Bandar Mahkota Cheras (2)",
    "street": "No.45, Jalan Mahkota Residence 1, Bandar Mahkota Cheras",
    "city": "Cheras",
    "state": "Selangor",
    "postcode": "43200",
    "phone": "+6010-2308-324",
    "latitude": 3.05140538710247,
    "longitude": 101.7818852124555,
    "category": "KK Super Mart"
  },
  {
    "id": "1905",
    "code": "BMC3",
    "name": "Bandar Mahkota Cheras (3)",
    "street": "No.13, Jalan Temenggung 21/9, Seksyen 9, Bandar Mahkota Cheras",
    "city": "Cheras",
    "state": "Selangor",
    "postcode": "43200",
    "phone": "+6016-5852-308",
    "latitude": 3.0542202,
    "longitude": 101.7870792,
    "category": "KK Super Mart"
  },
  {
    "id": "1427",
    "code": "BMR",
    "name": "Bangsar, Lorong Maarof",
    "street": "No.88, Lorong Maarof, Bangsar Park",
    "city": "Bangsar",
    "state": "Kuala Lumpur",
    "postcode": "59000",
    "phone": "+6016-3508-270",
    "latitude": 3.1325679657617718,
    "longitude": 101.67309745184,
    "category": "KK Super Mart"
  },
  {
    "id": "1130",
    "code": "BN1",
    "name": "Bandar Baru Nilai 1",
    "street": "PT 12171, Jalan BBN 1/1F, Pusat Bandar Putra Point, Bandar Baru Nilai",
    "city": "Nilai",
    "state": "Negeri Sembilan",
    "postcode": "71800",
    "phone": "+6016-3308-242",
    "latitude": 2.8156750882145545,
    "longitude": 101.79729074177527,
    "category": "KK Super Mart"
  },
  {
    "id": "1133",
    "code": "BN2",
    "name": "Bandar Baru Nilai 2",
    "street": "PT 7440, Jalan BBN 1/2F, Pusat Bandar Putra Point, Bandar Baru Nilai",
    "city": "Nilai",
    "state": "Negeri Sembilan",
    "postcode": "71800",
    "phone": "+6016-3308-245",
    "latitude": 2.816763551004155,
    "longitude": 101.79330458748673,
    "category": "KK Super Mart"
  },
  {
    "id": "1473",
    "code": "BPA",
    "name": "Bandar Puncak Alam",
    "street": "No.21, Jalan Astana D13/D, Astana Alam",
    "city": "Puncak Alam",
    "state": "Selangor",
    "postcode": "42300",
    "phone": "+60111-6107-308",
    "latitude": 3.2459083553754393,
    "longitude": 101.42629027022575,
    "category": [
      "KK Super Mart",
      "KK ATM"
    ]
  },
  {
    "id": "1394",
    "code": "BPB",
    "name": "Bangi, Pusat Bandar",
    "street": "No.23A, Jalan Medan PB 4, Pusat Bandar",
    "city": "Bandar Baru Bangi",
    "state": "Selangor",
    "postcode": "43650",
    "phone": "+6016-3308-453",
    "latitude": 2.962129378236336,
    "longitude": 101.75587265904298,
    "category": "KK Super Mart"
  },
  {
    "id": "1708",
    "code": "BPK",
    "name": "Balakong, Plaza Kasturi",
    "street": "No.9-G, Plaza Kasturi, Jalan Kasturi 1",
    "city": "Balakong",
    "state": "Selangor",
    "postcode": "43300",
    "phone": "+6016-8769-308",
    "latitude": 3.0387594132167663,
    "longitude": 101.76892636533229,
    "category": "KK Super Mart"
  },
  {
    "id": "1603",
    "code": "BPP",
    "name": "Bandar Putra Permai",
    "street": "No.28, Jalan BPP 8/4, Bandar Putra Permai",
    "city": "Seri Kembangan",
    "state": "Selangor",
    "postcode": "43300",
    "phone": "+6010-2865-308",
    "latitude": 2.9874147988203745,
    "longitude": 101.66569069970897,
    "category": "KK Super Mart"
  },
  {
    "id": "1937",
    "code": "BPP2",
    "name": "Bandar Putra Permai (2)",
    "street": "No. 10, Jalan BPP 5/7, Pusat Bandar Putra Permai",
    "city": "Puchong",
    "state": "Selangor",
    "postcode": "47110",
    "phone": "+6010-2494-308",
    "latitude": 2.9813737,
    "longitude": 101.6655089,
    "category": "KK Super Mart"
  },
  {
    "id": "1096",
    "code": "BPT",
    "name": "Bandar Puteri",
    "street": "No.65-G, Jalan Puteri 2/1, Bandar Puteri",
    "city": "Puchong",
    "state": "Selangor",
    "postcode": "47100",
    "phone": "+6016-3308-094",
    "latitude": 3.0244535612208225,
    "longitude": 101.61830527101876,
    "category": "KK Super Mart"
  },
  {
    "id": "1526",
    "code": "BPT2",
    "name": "Bandar Puteri (2)",
    "street": "No.38-1, Jalan Puteri 7/10, Bandar Puteri",
    "city": "Puchong",
    "state": "Selangor",
    "postcode": "47100",
    "phone": "+60111-6657-308",
    "latitude": 3.025535785552256,
    "longitude": 101.62352262241052,
    "category": "KK Super Mart"
  },
  {
    "id": "1928",
    "code": "BPT3",
    "name": "Bandar Puteri (3)",
    "street": "No.16, Jalan Puteri 1/2, Bandar Puteri",
    "city": "Puchong",
    "state": "Selangor",
    "postcode": "47100",
    "phone": "+6010-2447-308",
    "latitude": 3.0261539,
    "longitude": 101.6160403,
    "category": "KK Concept Store"
  },
  {
    "id": "1586",
    "code": "BPU",
    "name": "Batu Caves, Plaza Umno",
    "street": "No.9, Plaza Umno, Jalan Batu Caves, Taman Batu Caves",
    "city": "Batu Caves",
    "state": "Selangor",
    "postcode": "68100",
    "phone": "+6010-2599-308",
    "latitude": 3.238336475551867,
    "longitude": 101.67927557022121,
    "category": "KK Super Mart"
  },
  {
    "id": "1026",
    "code": "BS",
    "name": "Bandar Sunway",
    "street": "No.38, Jalan PJS 11/28A, Bandar Sunway",
    "city": "Petaling Jaya",
    "state": "Selangor",
    "postcode": "46150",
    "phone": "+6016-3308-152",
    "latitude": 3.074156563992987,
    "longitude": 101.60983015438892,
    "category": "KK Super Mart"
  },
  {
    "id": "1469",
    "code": "BS15",
    "name": "Bangi, Seksyen 15",
    "street": "No.25, Jalan 15/1A, Seksyen 15",
    "city": "Bandar Baru Bangi",
    "state": "Selangor",
    "postcode": "43650",
    "phone": "+60113-1295-308",
    "latitude": 2.9339698925098916,
    "longitude": 101.76833963649605,
    "category": "KK Super Mart"
  },
  {
    "id": "1444",
    "code": "BS2",
    "name": "Bandar Sunway (2)",
    "street": "No.45, Jalan PJS 11/7, Bandar Sunway",
    "city": "Petaling Jaya",
    "state": "Selangor",
    "postcode": "46150",
    "phone": "+60111-6145-308",
    "latitude": 3.070317616250325,
    "longitude": 101.60244708547894,
    "category": "KK Super Mart"
  },
  {
    "id": "1540",
    "code": "BS3",
    "name": "Bandar Sunway (3)",
    "street": "No.19, Jalan PJS 11/9, Bandar Sunway",
    "city": "Subang Jaya",
    "state": "Selangor",
    "postcode": "47500",
    "phone": "+60112-6186-308",
    "latitude": 3.0683652063950717,
    "longitude": 101.60313539416812,
    "category": "KK Super Mart"
  },
  {
    "id": "1396",
    "code": "BS4",
    "name": "Bangi, Seksyen 4",
    "street": "No.18, Jalan BM 4/1, Bandar Bukit Mahkota, Seksyen 4",
    "city": "Bangi Lama",
    "state": "Selangor",
    "postcode": "43000",
    "phone": "+6010-2356-308",
    "latitude": 2.8820015779265535,
    "longitude": 101.80852768538814,
    "category": [
      "KK Super Mart",
      "KK ATM"
    ]
  },
  {
    "id": "1479",
    "code": "BS42",
    "name": "Bangi, Seksyen 4 (2)",
    "street": "No.6, Jalan 4/1B, Seksyen 4",
    "city": "Bandar Baru Bangi",
    "state": "Selangor",
    "postcode": "43650",
    "phone": "+6016-3308-205",
    "latitude": 2.881165933145673,
    "longitude": 101.80849602300292,
    "category": "KK Super Mart"
  },
  {
    "id": "1371",
    "code": "BS7",
    "name": "Bangi, Seksyen 7",
    "street": "No.2, Jalan 7/1G-1, Seksyen 7",
    "city": "Bandar Baru Bangi",
    "state": "Selangor",
    "postcode": "43650",
    "phone": "+6016-2208-367",
    "latitude": 2.9719350427810034,
    "longitude": 101.78012765183911,
    "category": "KK Super Mart"
  },
  {
    "id": "1561",
    "code": "BSB",
    "name": "Balakong, Taman Setia Balakong",
    "street": "No.KA-15, Jalan Setia Balakong 2/1, Taman Setia Balakong",
    "city": "Balakong",
    "state": "Selangor",
    "postcode": "43300",
    "phone": "+6016-3029-308",
    "latitude": 3.0145730187409163,
    "longitude": 101.75140726533215,
    "category": [
      "KK Super Mart",
      "KK ATM"
    ]
  },
  {
    "id": "1094",
    "code": "BSD",
    "name": "Bukit Serdang",
    "street": "No.20-1, Jalan 4/1, Taman Bukit Serdang, Seksyen 4",
    "city": "Seri Kembangan",
    "state": "Selangor",
    "postcode": "43300",
    "phone": "+6016-3308-087",
    "latitude": 3.0293951625631137,
    "longitude": 101.698571027114,
    "category": "KK Super Mart"
  },
  {
    "id": "1175",
    "code": "BSD2",
    "name": "Bukit Serdang (2)",
    "street": "SA-AG-06 &amp; SA-BG-06, Block B, Pangsapuri Timur, Jalan Kasturi Taman Bukit Serdang, Seksyen 10",
    "city": "Seri Kembangan",
    "state": "Selangor",
    "postcode": "43300",
    "phone": "+6016-3308-319",
    "latitude": 3.03795464460012,
    "longitude": 101.69098769416796,
    "category": "KK Super Mart"
  },
  {
    "id": "1630",
    "code": "BSF",
    "name": "Balakong, Jalan Simfoni",
    "street": "No.6, Jalan Simfoni 1, Balakong, Seri Kembangan",
    "city": "Balakong",
    "state": "Selangor",
    "postcode": "43300",
    "phone": "+6010-6695-308",
    "latitude": 3.0267804020871023,
    "longitude": 101.75274516533221,
    "category": "KK Super Mart"
  },
  {
    "id": "1334",
    "code": "BSP2",
    "name": "Bandar Sri Permaisuri (2)",
    "street": "No.25, Jalan Sri Permaisuri 8, Bandar Sri Permaisuri",
    "city": "Cheras",
    "state": "Kuala Lumpur",
    "postcode": "56000",
    "phone": "+6010-2208-540",
    "latitude": 3.102446262246645,
    "longitude": 101.70832749985448,
    "category": "KK Super Mart"
  },
  {
    "id": "1467",
    "code": "BSP3",
    "name": "Bandar Sri Permaisuri (3)",
    "street": "No.17, Jalan Dwitasik 1, Bandar Sri Permaisuri",
    "city": "Cheras",
    "state": "Kuala Lumpur",
    "postcode": "56000",
    "phone": "+60113-1225-308",
    "latitude": 3.09948818600919,
    "longitude": 101.71221286533257,
    "category": "KK Super Mart"
  },
  {
    "id": "1327",
    "code": "BT2",
    "name": "Bangsar (2)",
    "street": "No.34, Jalan Telawi 2, Bangsar Baru",
    "city": "Bangsar",
    "state": "Kuala Lumpur",
    "postcode": "59100",
    "phone": "+6010-2346-308",
    "latitude": 3.131712904393507,
    "longitude": 101.67180029416849,
    "category": "KK Super Mart"
  },
  {
    "id": "1408",
    "code": "BT3",
    "name": "Bangsar (3)",
    "street": "No.8, Jalan Telawi, Bangsar Baru",
    "city": "Bangsar",
    "state": "Kuala Lumpur",
    "postcode": "59100",
    "phone": "+6010-2196-308",
    "latitude": 3.132752665721888,
    "longitude": 101.670589663482,
    "category": "KK Super Mart"
  },
  {
    "id": "1550",
    "code": "BT4",
    "name": "Bangsar (4)",
    "street": "No.9, Jalan Bangsar",
    "city": "Bangsar",
    "state": "Kuala Lumpur",
    "postcode": "59200",
    "phone": "+60113-6626-308",
    "latitude": 3.1298111663566477,
    "longitude": 101.6803338653328,
    "category": "KK Super Mart"
  },
  {
    "id": "1107",
    "code": "BTG",
    "name": "Bukit Tinggi",
    "street": "No.32A-0, Lorong Batu Nilam 3C, Bandar Bukit Tinggi",
    "city": "Klang",
    "state": "Selangor",
    "postcode": "41200",
    "phone": "+6016-3308-149",
    "latitude": 3.026059336687111,
    "longitude": 101.43458324520068,
    "category": "KK Super Mart"
  },
  {
    "id": "1669",
    "code": "BTG2",
    "name": "Bukit Tinggi (2)",
    "street": "No.3, Lorong Batu Nilam 34C, Bandar Bukit Tinggi 2",
    "city": "Klang",
    "state": "Selangor",
    "postcode": "41200",
    "phone": "+60115-1658-308",
    "latitude": 2.999478093886731,
    "longitude": 101.4318105364964,
    "category": "KK Super Mart"
  },
  {
    "id": "1720",
    "code": "BTG3",
    "name": "Bukit Tinggi (3)",
    "street": "No.3, Lorong Batu Nilam 21B, Bandar Bukit Tinggi 2",
    "city": "Klang",
    "state": "Selangor",
    "postcode": "41200",
    "phone": "+6010-5689-308",
    "latitude": 2.998235536599647,
    "longitude": 101.44173962300354,
    "category": "KK Super Mart"
  },
  {
    "id": "1820",
    "code": "BTG4",
    "name": "Bukit Tinggi (4)",
    "street": "No.72, Lorong Batu Nilam 1B, Bandar Bukit Tinggi 1",
    "city": "Klang",
    "state": "Selangor",
    "postcode": "41200",
    "phone": "+6016-2327-308",
    "latitude": 3.0105733764977707,
    "longitude": 101.43964732286253,
    "category": "KK Super Mart"
  },
  {
    "id": "1528",
    "code": "BTP",
    "name": "Banting, Taman Sri Putra",
    "street": "No.18, Jalan Toman 1, Taman Sri Putra",
    "city": "Banting",
    "state": "Selangor",
    "postcode": "42700",
    "phone": "+60111-6659-308",
    "latitude": 2.811668031510133,
    "longitude": 101.48922313649538,
    "category": "KK Super Mart"
  },
  {
    "id": "1186",
    "code": "BTR",
    "name": "Bandar Tun Razak",
    "street": "No.17, Jalan Budiman 25, Taman Mulia",
    "city": "Bandar Tun Razak",
    "state": "Kuala Lumpur",
    "postcode": "56000",
    "phone": "+6016-3308-359",
    "latitude": 3.091326687832875,
    "longitude": 101.71329962300403,
    "category": [
      "KK Super Mart",
      "KK ATM"
    ]
  },
  {
    "id": "1316",
    "code": "BTR2",
    "name": "Bandar Tun Razak (2)",
    "street": "No.68, Jalan Jujur",
    "city": "Bandar Tun Razak",
    "state": "Kuala Lumpur",
    "postcode": "56000",
    "phone": "+6010-2181-308",
    "latitude": 3.088572653663986,
    "longitude": 101.72064355480231,
    "category": "KK Super Mart"
  },
  {
    "id": "1546",
    "code": "BTR3",
    "name": "Bandar Tun Razak (3)",
    "street": "No.16, Jalan Jaya 5",
    "city": "Bandar Tun Razak",
    "state": "Kuala Lumpur",
    "postcode": "56000",
    "phone": "+60111-6137-308",
    "latitude": 3.0952246476782257,
    "longitude": 101.72487170083421,
    "category": "KK Super Mart"
  },
  {
    "id": "1584",
    "code": "BTS",
    "name": "Batu Caves, Taman Sunway",
    "street": "No.33, Jalan SM2, Taman Sunway Batu Caves",
    "city": "Batu Caves",
    "state": "Selangor",
    "postcode": "68100",
    "phone": "+6010-2559-308",
    "latitude": 3.2367047546324716,
    "longitude": 101.69117799416918,
    "category": "KK Super Mart"
  },
  {
    "id": "1148",
    "code": "BUT",
    "name": "Bangsar Utama",
    "street": "No.26, Jalan Bangsar Utama 1, Bangsar Utama",
    "city": "Bangsar",
    "state": "Kuala Lumpur",
    "postcode": "59000",
    "phone": "+6016-3308-391",
    "latitude": 3.129167519741855,
    "longitude": 101.67799020085124,
    "category": "KK Super Mart"
  },
  {
    "id": "1420",
    "code": "C118",
    "name": "Cheras Selatan 118",
    "street": "No.27, Jalan Tengah, Cheras Selatan 118",
    "city": "Cheras",
    "state": "Selangor",
    "postcode": "43200",
    "phone": "+6016-3308-257",
    "latitude": 3.035055586487277,
    "longitude": 101.7684774230037,
    "category": "KK Super Mart"
  },
  {
    "id": "1958",
    "code": "C180",
    "name": "Dataran C180",
    "street": "A-3A-G, Jalan C180/1, Dataran C180",
    "city": "Cheras",
    "state": "Selangor",
    "postcode": "43200",
    "phone": "+6010-2349-308",
    "latitude": 3.0367648,
    "longitude": 101.7663451,
    "category": "KK Super Mart"
  },
  {
    "id": "1840",
    "code": "CAD2",
    "name": "Cheras, Alam Damai (2)",
    "street": "No.88, Damai Circles, 42744, Jalan Damai Raya 2, Alam Damai",
    "city": "Cheras",
    "state": "Kuala Lumpur",
    "postcode": "56000",
    "phone": "+6016-3362-308",
    "latitude": 3.066141179951568,
    "longitude": 101.74364003579876,
    "category": "KK Super Mart"
  },
  {
    "id": "1680",
    "code": "CBA",
    "name": "Cyberjaya, Biz Avenue 2",
    "street": "G-G-52, Biz Avenue 2, Neocyber Blok G, Blok G, Biz Avenue 2, Neocyber Lingkaran, Dengkil",
    "city": "Cyberjaya",
    "state": "Selangor",
    "postcode": "63000",
    "phone": "+60111-6705-308",
    "latitude": 2.9156778,
    "longitude": 101.6501479,
    "category": "KK Super Mart"
  },
  {
    "id": "1113",
    "code": "CBB",
    "name": "Changkat Bukit Bintang",
    "street": "No.60, Changkat Bukit Bintang",
    "city": "Bukit Bintang",
    "state": "Kuala Lumpur",
    "postcode": "50200",
    "phone": "+6016-3308-510",
    "latitude": 3.1474954992643527,
    "longitude": 101.70869752115433,
    "category": [
      "KK Super Mart",
      "KK ATM"
    ]
  },
  {
    "id": "1291",
    "code": "CBB2",
    "name": "Changkat Bukit Bintang (2)",
    "street": "No.90, Changkat Bukit Bintang",
    "city": "Bukit Bintang",
    "state": "Kuala Lumpur",
    "postcode": "50200",
    "phone": "+6016-3753-308",
    "latitude": 3.147051338579512,
    "longitude": 101.70960788067576,
    "category": "KK Super Mart"
  },
  {
    "id": "1365",
    "code": "CBB3",
    "name": "Changkat Bukit Bintang (3)",
    "street": "No.55, Jalan Berangan, Changkat Bukit Bintang",
    "city": "Bukit Bintang",
    "state": "Kuala Lumpur",
    "postcode": "50200",
    "phone": "+6010-2308-503",
    "latitude": 3.147689342711501,
    "longitude": 101.7091795,
    "category": [
      "KK Super Mart",
      "KK ATM"
    ]
  },
  {
    "id": "1538",
    "code": "CBP",
    "name": "Cheras, Taman Bukit Permai",
    "street": "No.12, Jalan Medan Bukit Permai Satu, Taman Bukit Permai",
    "city": "Cheras",
    "state": "Kuala Lumpur",
    "postcode": "56100",
    "phone": "+6016-3308-739",
    "latitude": 3.1110118964528986,
    "longitude": 101.75668872300413,
    "category": "KK Super Mart"
  },
  {
    "id": "1286",
    "code": "CBS",
    "name": "Cheras, Taman Bukit Segar",
    "street": "No.12-A, Jalan BS 9, Taman Bukit Segar",
    "city": "Cheras",
    "state": "Selangor",
    "postcode": "43200",
    "phone": "+6016-6763-308",
    "latitude": 3.0939618608457873,
    "longitude": 101.75391405183973,
    "category": "KK Super Mart"
  },
  {
    "id": "1802",
    "code": "CCS",
    "name": "Cyberjaya, Cyberia Smart Homes",
    "street": "Unit 007, Commercial Units, Cyberia Smart Homes",
    "city": "Cyberjaya",
    "state": "Selangor",
    "postcode": "63000",
    "phone": "+60111-6257-308",
    "latitude": 2.9226964244438856,
    "longitude": 101.63959862230548,
    "category": "KK Super Mart"
  },
  {
    "id": "1830",
    "code": "CCT",
    "name": "Cyberjaya, Cambridge Tower",
    "street": "CT-G-03A, Cambridge Tower, Garden Plaza, Garden Plaza Persiaran Harmoni, Garden Residensi",
    "city": "Cyberjaya",
    "state": "Selangor",
    "postcode": "63000",
    "phone": "+6016-5255-308",
    "latitude": 2.9495776696006772,
    "longitude": 101.66524359092233,
    "category": "KK Super Mart"
  },
  {
    "id": "1971",
    "code": "CDC",
    "name": "Cheras, Bandar Damai Cheras",
    "street": "No.7, Jalan Damai Perdana 5/1B, Bandar Damai Cheras",
    "city": "Cheras",
    "state": "Selangor",
    "postcode": "43200",
    "phone": "+6010-2514-308",
    "latitude": 3.0522706,
    "longitude": 101.7751709,
    "category": "KK Super Mart"
  },
  {
    "id": "1418",
    "code": "CDJ",
    "name": "Cheras, Taman Damai Jaya",
    "street": "No.7, Jalan Damai 2, Taman Damai Jaya",
    "city": "Cheras",
    "state": "Selangor",
    "postcode": "43200",
    "phone": "+6016-3308-435",
    "latitude": 3.0622885807646942,
    "longitude": 101.7681253941682,
    "category": "KK Super Mart"
  },
  {
    "id": "1315",
    "code": "CDP",
    "name": "Cheras, Bandar Damai Perdana",
    "street": "No.12, Jalan Damai Perdana 1/8A, Bandar Damai Perdana",
    "city": "Cheras",
    "state": "Kuala Lumpur",
    "postcode": "56100",
    "phone": "+6010-2283-308",
    "latitude": 3.0480130112500863,
    "longitude": 101.73966702953338,
    "category": "KK Super Mart"
  },
  {
    "id": "1598",
    "code": "CDP2",
    "name": "Cheras, Bandar Damai Perdana (2)",
    "street": "No.5-00, Jalan Damai Perdana 6/1F, Taman Damai Perdana, Bandar Damai Perdana",
    "city": "Cheras",
    "state": "Kuala Lumpur",
    "postcode": "56000",
    "phone": "+6010-2707-308",
    "latitude": 3.051833931987605,
    "longitude": 101.78190667012693,
    "category": "KK Super Mart"
  },
  {
    "id": "1854",
    "code": "CGC",
    "name": "Cyberjaya, Glomac Cyberjaya",
    "street": "C-3, Glomac Cyberjaya, Block C, Jalan GC1, Taman Glamac Cyberjaya",
    "city": "Cyberjaya",
    "state": "Selangor",
    "postcode": "63000",
    "phone": "+6010-2687-308",
    "latitude": 2.9263668910531475,
    "longitude": 101.65598501134173,
    "category": "KK Super Mart"
  },
  {
    "id": "1342",
    "code": "CHH",
    "name": "City Villa, Jalan Haji Hussein",
    "street": "Parcel No.3, City Villa Kuala Lumpur, No. 69, Jalan Haji Hussein",
    "city": "Chow Kit",
    "state": "Kuala Lumpur",
    "postcode": "50300",
    "phone": "+6010-2308-178",
    "latitude": 3.1667121583506654,
    "longitude": 101.69945483649731,
    "category": "KK Super Mart"
  },
  {
    "id": "1379",
    "code": "CJC",
    "name": "Cheras, Jalan Cheras",
    "street": "No.512, Jalan Cheras 3 1/4",
    "city": "Cheras",
    "state": "Kuala Lumpur",
    "postcode": "56100",
    "phone": "+6016-2208-637",
    "latitude": 3.1214408810802006,
    "longitude": 101.72868603649711,
    "category": "KK Super Mart"
  },
  {
    "id": "1374",
    "code": "CJP",
    "name": "Cheras, Jalan Peel",
    "street": "No.86, Jalan Peel",
    "city": "Cheras",
    "state": "Kuala Lumpur",
    "postcode": "55100",
    "phone": "+6016-2208-376",
    "latitude": 3.1321017142747047,
    "longitude": 101.72276448550994,
    "category": "KK Super Mart"
  },
  {
    "id": "1134",
    "code": "CJY",
    "name": "Cheras Jaya",
    "street": "Lot 2, Jalan 7, Kawasan MIEL Cheras Jaya",
    "city": "Cheras",
    "state": "Selangor",
    "postcode": "43200",
    "phone": "+6016-3308-304",
    "latitude": 3.0253789607389785,
    "longitude": 101.76415887882509,
    "category": "KK Super Mart"
  },
  {
    "id": "1310",
    "code": "CKP",
    "name": "Chow Kit, Jalan Putra",
    "street": "No.50, Jalan Putra",
    "city": "Chow Kit",
    "state": "Kuala Lumpur",
    "postcode": "50350",
    "phone": "+6010-2213-308",
    "latitude": 3.1668379832319222,
    "longitude": 101.69593062300443,
    "category": "KK Super Mart"
  },
  {
    "id": "1691",
    "code": "CKV",
    "name": "Cyberjaya, Kanvas",
    "street": "G-6, Kanvas, Jalan Teknokrat 6, Cyber 5",
    "city": "Cyberjaya",
    "state": "Selangor",
    "postcode": "63000",
    "phone": "+60113-3219-308",
    "latitude": 2.9137629412928803,
    "longitude": 101.65500043649594,
    "category": "KK Super Mart"
  },
  {
    "id": "1539",
    "code": "CMJ",
    "name": "Cheras, Taman Maju Jaya",
    "street": "No.9, Jalan Bunga Melati, Taman Maju Jaya",
    "city": "Cheras",
    "state": "Kuala Lumpur",
    "postcode": "56100",
    "phone": "+60112-6136-308",
    "latitude": 3.1307294046359075,
    "longitude": 101.74308663649707,
    "category": "KK Super Mart"
  },
  {
    "id": "1194",
    "code": "CMK",
    "name": "Central Market",
    "street": "No.4, Jalan Hang Lekir",
    "city": "KL City Centre",
    "state": "Kuala Lumpur",
    "postcode": "50000",
    "phone": "+6016-3308-270",
    "latitude": 3.144708588500677,
    "longitude": 101.69593379416862,
    "category": [
      "KK Super Mart",
      "KK ATM"
    ]
  },
  {
    "id": "1664",
    "code": "CMP",
    "name": "Cyberjaya, Menara Paragon",
    "street": "GF-15, Menara Paragon, Persiaran Bestari, Cyber 11, Sepang, Wilayah Putrajaya",
    "city": "Cyberjaya",
    "state": "Selangor",
    "postcode": "63000",
    "phone": "+60112-6108-308",
    "latitude": 2.9248031942734767,
    "longitude": 101.6372979806746,
    "category": "KK Super Mart"
  },
  {
    "id": "1624",
    "code": "CMV",
    "name": "Cheras, M Vertika",
    "street": "G-11, Residensi M Vertika, No.555, Jalan Cheras",
    "city": "Cheras",
    "state": "Kuala Lumpur",
    "postcode": "56000",
    "phone": "+6010-2758-308",
    "latitude": 3.119371643544723,
    "longitude": 101.72787169970896,
    "category": "KK Super Mart"
  },
  {
    "id": "1911",
    "code": "CMV2",
    "name": "Cheras, M Vertica (2)",
    "street": "G-33, Residence M Vertica, No.555, Jalan Cheras",
    "city": "Cheras",
    "state": "Kuala Lumpur",
    "postcode": "56000",
    "phone": "+60111-6385-208",
    "latitude": 3.1185411,
    "longitude": 101.7272555,
    "category": "KK Super Mart"
  },
  {
    "id": "1692",
    "code": "CPR",
    "name": "Cheras, Tun Perak",
    "street": "No.9, Jalan Tun Perak 6, Taman Tun Perak",
    "city": "Cheras",
    "state": "Selangor",
    "postcode": "43200",
    "phone": "+60113-3389-308",
    "latitude": 3.0590835949907667,
    "longitude": 101.75801633649668,
    "category": "KK Super Mart"
  },
  {
    "id": "1284",
    "code": "CPT",
    "name": "Cheras, Taman Pertama",
    "street": "No.21, Jalan 2/90, Taman Pertama",
    "city": "Cheras",
    "state": "Kuala Lumpur",
    "postcode": "56100",
    "phone": "+6016-6313-308",
    "latitude": 3.1129105399541324,
    "longitude": 101.72998371618584,
    "category": [
      "KK Super Mart",
      "KK ATM"
    ]
  },
  {
    "id": "1247",
    "code": "CRS",
    "name": "Cheras, Taman Rasa Sayang",
    "street": "No.A3, Jalan Prima 1, Taman Rasa Sayang",
    "city": "Cheras",
    "state": "Selangor",
    "postcode": "43200",
    "phone": "+6016-3308-003",
    "latitude": 3.0739788203866305,
    "longitude": 101.75876637013788,
    "category": "KK Super Mart"
  },
  {
    "id": "1557",
    "code": "CSL",
    "name": "Chan Sow Lin",
    "street": "No.G-7, No.17, Jalan Chan Sow Lin, Chan Sow Lin",
    "city": "Pudu",
    "state": "Kuala Lumpur",
    "postcode": "55200",
    "phone": "+6016-3308-762",
    "latitude": 3.1222470295718447,
    "longitude": 101.71168796718281,
    "category": "KK Super Mart"
  },
  {
    "id": "1211",
    "code": "CTD1",
    "name": "65 & 67 Changkat Thambi Dollah",
    "street": "No.65 &amp; 67, Changkat Thambi Dollah, Off Jalan Pudu",
    "city": "Pudu",
    "state": "Kuala Lumpur",
    "postcode": "55100",
    "phone": "+6016-3308-297",
    "latitude": 3.1408249639768853,
    "longitude": 101.71098062300425,
    "category": "KK Super Mart"
  },
  {
    "id": "1419",
    "code": "CTJ",
    "name": "Cheras, Taming Jaya",
    "street": "No.25, Jalan Medan Taming 3, Pusat Perniagaan Taming Jaya 1",
    "city": "Seri Kembangan",
    "state": "Selangor",
    "postcode": "43300",
    "phone": "+6016-3308-009",
    "latitude": 3.023946116605326,
    "longitude": 101.740905294168,
    "category": "KK Super Mart"
  },
  {
    "id": "1161",
    "code": "CTM",
    "name": "Cheras, Taman Miharja",
    "street": "59, Jalan 3/93, Taman Miharja",
    "city": "Cheras",
    "state": "Kuala Lumpur",
    "postcode": "55100",
    "phone": "+6016-3308-434",
    "latitude": 3.124061921588961,
    "longitude": 101.72244903153438,
    "category": "KK Super Mart"
  },
  {
    "id": "1123",
    "code": "CTP",
    "name": "Casa Tropicana",
    "street": "B-G-02 &amp; B-G-03, Block B, Casa Tropicana",
    "city": "Petaling Jaya",
    "state": "Selangor",
    "postcode": "47410",
    "phone": "+6016-3308-479",
    "latitude": 3.1377965881144405,
    "longitude": 101.59461217882574,
    "category": "KK Super Mart"
  },
  {
    "id": "1543",
    "code": "CTS",
    "name": "Cheras Traders Square",
    "street": "No.95, Jalan Dataran Cheras 5, Dataran Perniagaan Cheras, Balakong",
    "city": "Cheras",
    "state": "Selangor",
    "postcode": "43200",
    "phone": "+60115-1136-308",
    "latitude": 3.0367567101140587,
    "longitude": 101.7645535008051,
    "category": "KK Super Mart"
  },
  {
    "id": "1601",
    "code": "CYC",
    "name": "Cheras, You City",
    "street": "VG-02 You Vista, Jalan You City, You City Cheras",
    "city": "Cheras",
    "state": "Selangor",
    "postcode": "43200",
    "phone": "+6016-2208-325",
    "latitude": 3.0750793729477777,
    "longitude": 101.76262677013838,
    "category": "KK Super Mart"
  },
  {
    "id": "1783",
    "code": "DAD",
    "name": "Dataran Ara Damansara",
    "street": "C-G-19, Jalan PJU 1A/20B, Dataran Ara Damansara",
    "city": "Petaling Jaya",
    "state": "Selangor",
    "postcode": "47301",
    "phone": "+6016-2566-308",
    "latitude": 3.120207981358265,
    "longitude": 101.57918989347019,
    "category": "KK Super Mart"
  },
  {
    "id": "1938",
    "code": "DCV",
    "name": "Dengkil, Cyber Valley",
    "street": "B2-21-G, Blok 2, Jalan Cyber Valley 1, Cyber Valley",
    "city": "Dengkil",
    "state": "Selangor",
    "postcode": "43800",
    "phone": "+6010-2464-308",
    "latitude": 2.8669064,
    "longitude": 101.6954435,
    "category": "KK Super Mart"
  },
  {
    "id": "1331",
    "code": "DDH",
    "name": "Damansara Damai, Apartment Harmoni",
    "street": "Blok A, A-G-01, Apartment Harmoni, Jalan PJU 10/4C, Damansara Damai",
    "city": "Petaling Jaya",
    "state": "Selangor",
    "postcode": "47830",
    "phone": "+6010-2987-308",
    "latitude": 3.1967204100344877,
    "longitude": 101.58473419970898,
    "category": [
      "KK Super Mart",
      "KK ATM"
    ]
  },
  {
    "id": "1503",
    "code": "DDI",
    "name": "Damanasara Damai, Apartment Idaman",
    "street": "A-G07, Block A, Apartment Idaman, No.9, Jalan PJU 10/1, PJU 10 Damansara Damai",
    "city": "Petaling Jaya",
    "state": "Selangor",
    "postcode": "47830",
    "phone": "+6016-3217-308",
    "latitude": 3.1914413035186953,
    "longitude": 101.59084614849525,
    "category": "KK Super Mart"
  },
  {
    "id": "1084",
    "code": "DDM",
    "name": "Damansara Damai",
    "street": "J-009 Vista, Jalan PJU 10/2A, Damansara Damai",
    "city": "Petaling Jaya",
    "state": "Selangor",
    "postcode": "47830",
    "phone": "+6016-3308-050",
    "latitude": 3.204546952889542,
    "longitude": 101.59472654082873,
    "category": "KK Super Mart"
  },
  {
    "id": "1954",
    "code": "DDM2",
    "name": "Damansara Damai (2)",
    "street": "B-LG1-03A, Blok B Apartment Lestari, No.1, Jalan PJU 10/1B, PJU10, Damansara Damai",
    "city": "Petaling Jaya",
    "state": "Selangor",
    "postcode": "47830",
    "phone": "+6010-2546-308",
    "latitude": 3.194526,
    "longitude": 101.5901833,
    "category": "KK Super Mart"
  },
  {
    "id": "1131",
    "code": "DJY",
    "name": "Damansara Jaya",
    "street": "33, Jalan SS 22/19, Damansara Jaya",
    "city": "Petaling Jaya",
    "state": "Selangor",
    "postcode": "47400",
    "phone": "+6016-3308-243",
    "latitude": 3.132287148646563,
    "longitude": 101.61628621354855,
    "category": "KK Super Mart"
  },
  {
    "id": "1251",
    "code": "DJY2",
    "name": "Damansara Jaya (2)",
    "street": "67, Jalan SS 22/11, Damansara Jaya",
    "city": "Petaling Jaya",
    "state": "Selangor",
    "postcode": "47400",
    "phone": "+6016-3853-308",
    "latitude": 3.1298783048456293,
    "longitude": 101.62110135183991,
    "category": "KK Super Mart"
  },
  {
    "id": "1028",
    "code": "DK",
    "name": "Danau Kota",
    "street": "No.12 &amp; 14, Jalan 7/23E, Taman Danau Kota,.",
    "city": "Setapak",
    "state": "Kuala Lumpur",
    "postcode": "53300",
    "phone": "+6016-3308-216",
    "latitude": 3.2087226578220784,
    "longitude": 101.71978357613214,
    "category": "KK Super Mart"
  },
  {
    "id": "1207",
    "code": "DKN",
    "name": "Danau Kota, Niaga",
    "street": "No.16, Jalan Danau Niaga, Plaza Crystal Villa, Taman Danau Kota",
    "city": "Setapak",
    "state": "Kuala Lumpur",
    "postcode": "53300",
    "phone": "+6016-3308-734",
    "latitude": 3.2029036524078642,
    "longitude": 101.7173450395177,
    "category": "KK Super Mart"
  },
  {
    "id": "1024",
    "code": "DP",
    "name": "Desa Petaling",
    "street": "No.33 &amp; 35, Jalan 3/125 D",
    "city": "Desa Petaling",
    "state": "Kuala Lumpur",
    "postcode": "57100",
    "phone": "+6016-3308-137",
    "latitude": 3.0917777200960037,
    "longitude": 101.70354202685047,
    "category": [
      "KK Super Mart",
      "KK ATM"
    ]
  },
  {
    "id": "1305",
    "code": "DP2",
    "name": "Desa Petaling (2)",
    "street": "No.9, Jalan 2/125G, Desa Sri Puteri, Taman Desa Petaling",
    "city": "Desa Petaling",
    "state": "Kuala Lumpur",
    "postcode": "57100",
    "phone": "+6010-2553-308",
    "latitude": 3.0854047,
    "longitude": 101.7129939,
    "category": [
      "KK Super Mart",
      "KK ATM"
    ]
  },
  {
    "id": "1005",
    "code": "DP3",
    "name": "Desa Petaling (3)",
    "street": "No.10-3, Pusat Perdagangan Salak II, Jalan 2/125",
    "city": "Desa Petaling",
    "state": "Kuala Lumpur",
    "postcode": "57100",
    "phone": "+60113-3295-308",
    "latitude": 3.0848002189807797,
    "longitude": 101.70042009985448,
    "category": "KK Concept Store"
  },
  {
    "id": "1074",
    "code": "DPD",
    "name": "Desa Pandan",
    "street": "No.8, Jalan 1/76D",
    "city": "Desa Pandan",
    "state": "Kuala Lumpur",
    "postcode": "51000",
    "phone": "+6016-3308-047",
    "latitude": 3.1472319879017463,
    "longitude": 101.73708313834722,
    "category": "KK Super Mart"
  },
  {
    "id": "1125",
    "code": "DPN",
    "name": "Damansara Perdana",
    "street": "No.1-1, Jalan PJU 8/5F, Bandar Damansara Perdana, Perdana Business Centre",
    "city": "Petaling Jaya",
    "state": "Selangor",
    "postcode": "47820",
    "phone": "+6016-3308-068",
    "latitude": 3.1667328334357143,
    "longitude": 101.60614307882584,
    "category": "KK Super Mart"
  },
  {
    "id": "1333",
    "code": "DPN2",
    "name": "Damansara Perdana (2)",
    "street": "A-G-K02, Flora Damansara, Jalan PJU 8/9, Bandar Damansara Perdana",
    "city": "Petaling Jaya",
    "state": "Selangor",
    "postcode": "47820",
    "phone": "+6016-3308-525",
    "latitude": 3.2217905416465484,
    "longitude": 101.63781926995956,
    "category": "KK Super Mart"
  },
  {
    "id": "1784",
    "code": "DPP",
    "name": "Dengkil, Park Place",
    "street": "No.20, Jalan PP 1/1, Park Place 1, Cybersouth",
    "city": "Dengkil",
    "state": "Selangor",
    "postcode": "43800",
    "phone": "+6016-2576-308",
    "latitude": 2.8693540355997094,
    "longitude": 101.65995890696273,
    "category": "KK Super Mart"
  },
  {
    "id": "1349",
    "code": "DSD",
    "name": "Taman Desa Serdang",
    "street": "No.25, Jalan Desa Serdang 1, Taman Desa Serdang",
    "city": "Seri Kembangan",
    "state": "Selangor",
    "postcode": "43300",
    "phone": "+6010-2308-073",
    "latitude": 3.0096378479433006,
    "longitude": 101.72353186533216,
    "category": [
      "KK Super Mart",
      "KK ATM"
    ]
  },
  {
    "id": "1895",
    "code": "DSL",
    "name": "Dengkil, Savanna Lifestyle Retail",
    "street": "No.B-G-25, Savanna Lifestyle Retail, Jalan BBLS 2, Bandar Baru Lembah Selatan",
    "city": "Dengkil",
    "state": "Selangor",
    "postcode": "43800",
    "phone": "+6016-7369-308",
    "latitude": 2.9035522,
    "longitude": 101.7633995,
    "category": "KK Super Mart"
  },
  {
    "id": "1105",
    "code": "DSM",
    "name": "Desa Mentari",
    "street": "No.13-1, Jalan PJS 6/5F, Desa Mentari",
    "city": "Petaling Jaya",
    "state": "Selangor",
    "postcode": "46000",
    "phone": "+6016-3308-458",
    "latitude": 3.081109543426464,
    "longitude": 101.61893307882538,
    "category": "KK Super Mart"
  },
  {
    "id": "1925",
    "code": "DSM2",
    "name": "Desa Mentari (2)",
    "street": "B5-G-56, Blok 5, Jalan PJS 6/5A, Desa Mentari",
    "city": "Petaling Jaya",
    "state": "Selangor",
    "postcode": "46000",
    "phone": "+6010-2425-308",
    "latitude": 3.0985653,
    "longitude": 101.6523525,
    "category": "KK Super Mart"
  },
  {
    "id": "1112",
    "code": "DTM",
    "name": "Dataran Mentari",
    "street": "No.19, Jalan PJS 8/11, Dataran Mentari",
    "city": "Petaling Jaya",
    "state": "Selangor",
    "postcode": "46150",
    "phone": "+6016-3308-459",
    "latitude": 3.0790394,
    "longitude": 101.610561,
    "category": "KK Super Mart"
  },
  {
    "id": "1067",
    "code": "DTR",
    "name": "Desa Tun Razak",
    "street": "No.36, Jalan 10/118B",
    "city": "Desa Tun Razak",
    "state": "Kuala Lumpur",
    "postcode": "56000",
    "phone": "+6016-3308-465",
    "latitude": 3.086079778421093,
    "longitude": 101.72027562618882,
    "category": "KK Super Mart"
  },
  {
    "id": "1359",
    "code": "DTS",
    "name": "Desa Tasik",
    "street": "No.6, Jalan 30A/146, Desa Tasik",
    "city": "Sungai Besi",
    "state": "Kuala Lumpur",
    "postcode": "57000",
    "phone": "+6010-2308-673",
    "latitude": 3.072620848850991,
    "longitude": 101.71528649754651,
    "category": "KK Super Mart"
  },
  {
    "id": "1043",
    "code": "DUT",
    "name": "Damansara Utama",
    "street": "No.70, Jalan SS21/39, Damansara Utama",
    "city": "Petaling Jaya",
    "state": "Selangor",
    "postcode": "47400",
    "phone": "+6016-3308-176",
    "latitude": 3.134888616393709,
    "longitude": 101.6214843095114,
    "category": "KK Super Mart"
  },
  {
    "id": "1102",
    "code": "DWG",
    "name": "Dang Wangi",
    "street": "No.59, Jalan Dang Wangi",
    "city": "KL City Centre",
    "state": "Kuala Lumpur",
    "postcode": "50100",
    "phone": "+6016-3308-136",
    "latitude": 3.157790142374753,
    "longitude": 101.69926981620854,
    "category": "KK Super Mart"
  },
  {
    "id": "1262",
    "code": "ECS",
    "name": "Eco Sky",
    "street": "G-29, Eco Sky, No.972, Batu 6 1/2 Jalan Ipoh",
    "city": "KL City Centre",
    "state": "Kuala Lumpur",
    "postcode": "68100",
    "phone": "+6016-5413-308",
    "latitude": 3.2192124587075264,
    "longitude": 101.67160402300472,
    "category": "KK Super Mart"
  },
  {
    "id": "1117",
    "code": "EPM",
    "name": "Endah Promenade",
    "street": "A-G-5, Endah Promenade, Jalan 3/149E, Taman Sri Endah",
    "city": "Sri Petaling",
    "state": "Kuala Lumpur",
    "postcode": "57000",
    "phone": "+6016-3308-286",
    "latitude": 3.064085407385286,
    "longitude": 101.69709236533244,
    "category": "KK Super Mart"
  },
  {
    "id": "1095",
    "code": "FBP",
    "name": "Fraser Business Park",
    "street": "No.32-G, Jalan Metro Pudu 2, Fraser Business Park",
    "city": "Pudu",
    "state": "Kuala Lumpur",
    "postcode": "55100",
    "phone": "+6016-3308-095",
    "latitude": 3.1296454706487156,
    "longitude": 101.71383250085152,
    "category": "KK Super Mart"
  },
  {
    "id": "1553",
    "code": "GAC",
    "name": "Genting, Amber Court",
    "street": "No.3A117 Amber Court, Jalan Ion Delemen",
    "city": "Genting Highands",
    "state": "Pahang",
    "postcode": "69000",
    "phone": "+60113-6736-308",
    "latitude": 3.430478117635204,
    "longitude": 101.78931639417023,
    "category": [
      "KK Super Mart",
      "KK ATM"
    ]
  },
  {
    "id": "1362",
    "code": "GBR",
    "name": "Gombak Ria",
    "street": "No.10, Jalan Gombak Ria, Taman Gombak Ria",
    "city": "Batu Caves",
    "state": "Selangor",
    "postcode": "58100",
    "phone": "+6010-2308-447",
    "latitude": 3.2255072335600614,
    "longitude": 101.7012841653333,
    "category": [
      "KK Super Mart",
      "KK ATM"
    ]
  },
  {
    "id": "1002",
    "code": "GEO",
    "name": "Sunway GEO Avenue",
    "street": "E-01-09, Sunway GEO Avenue SDF 1B, Jalan Lagoon Selatan, Bandar Sunway",
    "city": "Subang Jaya",
    "state": "Selangor",
    "postcode": "47500",
    "phone": "+6010-9356-308",
    "latitude": 3.0652456275304254,
    "longitude": 101.60835717011174,
    "category": "KK Concept Store"
  },
  {
    "id": "1007",
    "code": "GGH",
    "name": "Genting Grand Hotel",
    "street": "2 Lot No.G/LG14.00, Ground Floor, Genting Grand Hotel",
    "city": "Genting Highands",
    "state": "Pahang",
    "postcode": "69000",
    "phone": "+60111-6751-308",
    "latitude": 3.4252045537599085,
    "longitude": 101.7922093975472,
    "category": "KK Concept Store"
  },
  {
    "id": "1448",
    "code": "GGJ",
    "name": "Genting, Gohtong Jaya",
    "street": "No.43, Jalan Jati 1, Gohtong Jaya",
    "city": "Genting Highands",
    "state": "Pahang",
    "postcode": "69000",
    "phone": "+60111-6465-308",
    "latitude": 3.3960344043537987,
    "longitude": 101.76879957030643,
    "category": [
      "KK Super Mart",
      "KK ATM"
    ]
  },
  {
    "id": "1406",
    "code": "GKL",
    "name": "Genting Kelang",
    "street": "No.205, Jalan Genting Kelang, Taman Ayer Panas",
    "city": "Setapak",
    "state": "Kuala Lumpur",
    "postcode": "53300",
    "phone": "+6016-3496-308",
    "latitude": 3.1950356521423218,
    "longitude": 101.71213773649747,
    "category": "KK Super Mart"
  },
  {
    "id": "1537",
    "code": "GM3",
    "name": "Gombak, M3 Shopping Mall",
    "street": "Lot G-11 &amp; AG-11, M3 Shopping Mall, Jalan Madrasah Off Jalan Taman Melati, Gombak Setia",
    "city": "Gombak",
    "state": "Kuala Lumpur",
    "postcode": "53100",
    "phone": "+60111-6216-308",
    "latitude": 3.249354862205377,
    "longitude": 101.71661727468825,
    "category": "KK Super Mart"
  },
  {
    "id": "1055",
    "code": "GMI",
    "name": "Gombak Medan Idaman",
    "street": "No.12, Jalan Jernai 3, Medan Idaman, Batu 5",
    "city": "Gombak",
    "state": "Kuala Lumpur",
    "postcode": "53100",
    "phone": "+6016-3308-061",
    "latitude": 3.214444534072947,
    "longitude": 101.71245463158074,
    "category": "KK Super Mart"
  },
  {
    "id": "1912",
    "code": "GPA",
    "name": "Genting Permai Avenue",
    "street": "P18, Jalan Permai 1/1, Genting Permai Avenue",
    "city": "Genting Highands",
    "state": "Pahang",
    "postcode": "69000",
    "phone": "+6016-5784-308",
    "latitude": 3.3863716,
    "longitude": 101.775083,
    "category": "KK Super Mart"
  },
  {
    "id": "1495",
    "code": "GPM",
    "name": "Genting, Jalan Permai",
    "street": "Lot PT21074, Jalan Permai 2",
    "city": "Genting Highands",
    "state": "Pahang",
    "postcode": "69000",
    "phone": "+6010-7685-308",
    "latitude": 3.3875986607941893,
    "longitude": 101.7746986518414,
    "category": [
      "KK Super Mart",
      "KK ATM"
    ]
  },
  {
    "id": "1972",
    "code": "GPO",
    "name": "Genting, Premium Outlets",
    "street": "Lot No.3-14, Level 3 of Awana Skycentral, Genting Highlands Resort",
    "city": "Genting Highands",
    "state": "Pahang",
    "postcode": "69000",
    "phone": "+6010-3976-308",
    "latitude": 3.3970414,
    "longitude": 101.7865654,
    "category": "KK Super Mart"
  },
  {
    "id": "1009",
    "code": "GRH",
    "name": "Genting, Resort Hotel",
    "street": "Lot No.R/L1.1K1, Level 1, Resort Hotel, Genting Highlands Resort, 69000 Genting Highlands, Pahang.",
    "city": "Genting Highands",
    "state": "Pahang",
    "postcode": "69000",
    "phone": "",
    "latitude": 3.397833762968554,
    "longitude": 101.78641465964299,
    "category": "KK Concept Store"
  },
  {
    "id": "1171",
    "code": "GWY",
    "name": "KLIA 2, Gateway",
    "street": "Unit L1-09 &amp; L1-10, Level 1, Gateway @ KLIA 2, Terminal KLIA 2, KL International Airport, Jalan KLIA 2/1, KLIA",
    "city": "Sepang",
    "state": "Selangor",
    "postcode": "64000",
    "phone": "+6016-3308-447",
    "latitude": 2.7442925141177787,
    "longitude": 101.68569274403306,
    "category": "KK Super Mart"
  },
  {
    "id": "1221",
    "code": "GWY2",
    "name": "KLIA 2, Gateway (2)",
    "street": "Unit L2M-20 &amp; L2M-21, Level 2M, Gateway @ KLIA 2, Terminal KLIA 2, KL International Airport, Jalan KLIA 2/1, KLIA",
    "city": "Sepang",
    "state": "Selangor",
    "postcode": "64000",
    "phone": "+6016-3308-219",
    "latitude": 2.743236117583012,
    "longitude": 101.68615086505936,
    "category": "KK Super Mart"
  },
  {
    "id": "1554",
    "code": "GWY3",
    "name": "KLIA 2, Gateway (3)",
    "street": "Unit L2-1, 2, 3, 4, Level 2, Gateway @ KLIA 2, Terminal KLIA 2, KL International Airport, Jalan KLIA 2/1",
    "city": "Sepang",
    "state": "Selangor",
    "postcode": "64000",
    "phone": "+60113-6757-308",
    "latitude": 2.744765094234066,
    "longitude": 101.68537961334732,
    "category": "KK Super Mart"
  },
  {
    "id": "1132",
    "code": "",
    "name": "HLG14 (UL14) - Hulu Langat",
    "street": "No.17, Jalan Lagenda Suria 1, Taman Lagenda Suria",
    "city": "Hulu Langat",
    "state": "Selangor",
    "postcode": "43100",
    "phone": "+6016-3308-244",
    "latitude": 3.0995466805982543,
    "longitude": 101.63001902416774,
    "category": "KK Super Mart"
  },
  {
    "id": "1346",
    "code": "HYB",
    "name": "Hulu Yam Bharu",
    "street": "No.56, Jalan Besar, Hulu Yam Bharu",
    "city": "Batang Kali",
    "state": "Selangor",
    "postcode": "44300",
    "phone": "+6010-2308-553",
    "latitude": 3.4336814072280473,
    "longitude": 101.65720766533454,
    "category": "KK Super Mart"
  },
  {
    "id": "1472",
    "code": "IB1",
    "name": "Imbi, Lorong 1",
    "street": "No.32, Lorong 1/77A",
    "city": "Imbi",
    "state": "Kuala Lumpur",
    "postcode": "51100",
    "phone": "+60113-3276-308",
    "latitude": 3.155585991102191,
    "longitude": 101.71073073617188,
    "category": "KK Super Mart"
  },
  {
    "id": "1124",
    "code": "IBD",
    "name": "Impian Baiduri",
    "street": "A-01-07, Block A Baiduri, Taman Impian Baiduri, Jalan 224, Seksyen 51A",
    "city": "Petaling Jaya",
    "state": "Selangor",
    "postcode": "46100",
    "phone": "+6016-3308-124",
    "latitude": 3.094761687,
    "longitude": 101.62172472300398,
    "category": "KK Super Mart"
  },
  {
    "id": "1370",
    "code": "IBM",
    "name": "Medan Imbi",
    "street": "No.1, Jalan Khoo Teik Ee, Medan Imbi",
    "city": "Bukit Bintang",
    "state": "Kuala Lumpur",
    "postcode": "55100",
    "phone": "+6016-2208-106",
    "latitude": 3.144765404235327,
    "longitude": 101.71466238551625,
    "category": "KK Super Mart"
  },
  {
    "id": "1072",
    "code": "ICT",
    "name": "Shah Alam, I-City",
    "street": "J-33-G, Block J, No. 6, Persiaran Multimedia, I-City, Seksyen 7",
    "city": "Shah Alam",
    "state": "Selangor",
    "postcode": "40000",
    "phone": "+6016-3308-036",
    "latitude": 3.0657791069935816,
    "longitude": 101.48519082300392,
    "category": "KK Super Mart"
  },
  {
    "id": "1625",
    "code": "ICT2",
    "name": "Shah Alam, I-City (2)",
    "street": "B-UG-08, 09 &amp; 10, Upper Ground Floor Level, I-Suite, Centralwalk, I-City",
    "city": "Shah Alam",
    "state": "Selangor",
    "postcode": "40000",
    "phone": "+6010-2918-308",
    "latitude": 3.064813883320336,
    "longitude": 101.48057355752587,
    "category": "KK Super Mart"
  },
  {
    "id": "1006",
    "code": "ICT3",
    "name": "Shah Alam, I-City (3)",
    "street": "A3-7-G, Block A, Persiaran Multimedia, Seksyen 7, I-City",
    "city": "Shah Alam",
    "state": "Selangor",
    "postcode": "40000",
    "phone": "+6010-9209-308",
    "latitude": 3.0648465271323104,
    "longitude": 101.48333816293956,
    "category": "KK Concept Store"
  },
  {
    "id": "1403",
    "code": "JAB",
    "name": "Johor, Taman Abad",
    "street": "No.38, Jalan Harimau Tarum, Taman Abad",
    "city": "Johor Bahru",
    "state": "Johor",
    "postcode": "80250",
    "phone": "+6016-2166-308",
    "latitude": 1.482049246138605,
    "longitude": 103.76421246955094,
    "category": "KK Super Mart"
  },
  {
    "id": "1589",
    "code": "JADH",
    "name": "Johor, Taman Adda Heights",
    "street": "No.109, Jalan Adda 3/1, Taman Adda Heights",
    "city": "Johor Bahru",
    "state": "Johor",
    "postcode": "81100",
    "phone": "+6010-9836-308",
    "latitude": 1.5666749936000997,
    "longitude": 103.75234103888599,
    "category": [
      "KK Super Mart",
      "KK ATM"
    ]
  },
  {
    "id": "1527",
    "code": "JAHT",
    "name": "Johor, Ayer Hitam",
    "street": "Lot 767, Jalan Batu Pahat, Kampung Baru Ayer Hitam",
    "city": "Ayer Hitam",
    "state": "Johor",
    "postcode": "86100",
    "phone": "+60112-6176-308",
    "latitude": 1.9184738179007048,
    "longitude": 103.17947220035676,
    "category": "KK Super Mart"
  },
  {
    "id": "1093",
    "code": "JAL",
    "name": "Jalan Alor",
    "street": "No.56, Jalan Alor",
    "city": "Bukit Bintang",
    "state": "Kuala Lumpur",
    "postcode": "50200",
    "phone": "+6016-3308-104",
    "latitude": 3.1458298457218845,
    "longitude": 101.70850742855431,
    "category": [
      "KK Super Mart",
      "KK ATM"
    ]
  },
  {
    "id": "1566",
    "code": "JAL2",
    "name": "Jalan Alor (2)",
    "street": "No.77, Jalan Alor",
    "city": "Bukit Bintang",
    "state": "Kuala Lumpur",
    "postcode": "50200",
    "phone": "+6016-9207-308",
    "latitude": 3.14738985358485,
    "longitude": 101.70968097017472,
    "category": [
      "KK Super Mart",
      "KK ATM"
    ]
  },
  {
    "id": "1568",
    "code": "JBBP",
    "name": "Johor, Batu Pahat, Taman Bukit Pasir",
    "street": "No.25, Jalan Kuning, Taman Bukit Pasir",
    "city": "Batu Pahat",
    "state": "Johor",
    "postcode": "83000",
    "phone": "+6016-9867-308",
    "latitude": 1.864956330651536,
    "longitude": 102.93993732299869,
    "category": [
      "KK Super Mart",
      "KK ATM"
    ]
  },
  {
    "id": "1721",
    "code": "JBDO",
    "name": "Johor, Bandar Dato Onn",
    "street": "No.73, Jalan Perjiranan 15/1, Bandar Dato Onn",
    "city": "Johor Bahru",
    "state": "Johor",
    "postcode": "81100",
    "phone": "+6010-8257-308",
    "latitude": 1.5694593690835774,
    "longitude": 103.74284169416212,
    "category": "KK Super Mart"
  },
  {
    "id": "1576",
    "code": "JBGB",
    "name": "Johor, Bukit Gambir",
    "street": "No.13, Jalan Gambir 1, Bandar Baru Bukit Gambir",
    "city": "Bukit Gambir",
    "state": "Johor",
    "postcode": "84800",
    "phone": "+6010-2676-308",
    "latitude": 2.2120298771342837,
    "longitude": 102.65342565183562,
    "category": "KK Super Mart"
  },
  {
    "id": "1795",
    "code": "JBI2",
    "name": "Johor, Taman Bukit Indah (2)",
    "street": "No.12, Jalan Indah 5/4, Taman Bukit Indah",
    "city": "Johor Bahru",
    "state": "Johor",
    "postcode": "81200",
    "phone": "+6010-7697-308",
    "latitude": 1.484926453644152,
    "longitude": 103.64732976463401,
    "category": "KK Super Mart"
  },
  {
    "id": "1127",
    "code": "JBK",
    "name": "Jalan Besar Kapar",
    "street": "Lot 151, Jalan Besar Kapar",
    "city": "Klang",
    "state": "Selangor",
    "postcode": "42200",
    "phone": "+6016-3308-145",
    "latitude": 3.1408247719258466,
    "longitude": 101.37408669767157,
    "category": "KK Super Mart"
  },
  {
    "id": "1534",
    "code": "JBPR",
    "name": "Johor, Batu Pahat, Rahmat",
    "street": "No.86, Jalan Rahmat",
    "city": "Batu Pahat",
    "state": "Johor",
    "postcode": "83000",
    "phone": "+6016-3308-477",
    "latitude": 1.8485908562053042,
    "longitude": 102.93316792299862,
    "category": "KK Super Mart"
  },
  {
    "id": "1782",
    "code": "JBPS",
    "name": "Johor, Batu Pahat, Senggarang",
    "street": "No.159, Jalan Ismail, Senggarang",
    "city": "Batu Pahat",
    "state": "Johor",
    "postcode": "83200",
    "phone": "+6016-2575-308",
    "latitude": 1.749422994138061,
    "longitude": 103.05120686463377,
    "category": "KK Super Mart"
  },
  {
    "id": "1551",
    "code": "JBRG",
    "name": "Johor, Batu Pahat, Rugayah",
    "street": "No.83, Jalan Rugayah",
    "city": "Batu Pahat",
    "state": "Johor",
    "postcode": "83000",
    "phone": "+60113-6696-308",
    "latitude": 1.854859854127758,
    "longitude": 102.9262785156802,
    "category": [
      "KK Super Mart",
      "KK ATM"
    ]
  },
  {
    "id": "1108",
    "code": "JBS",
    "name": "Jalan Besar, Semenyih",
    "street": "Lot 25, Section 4, Jalan Besar",
    "city": "Semenyih",
    "state": "Selangor",
    "postcode": "43500",
    "phone": "+6016-3308-471",
    "latitude": 3.0737863596767876,
    "longitude": 101.8512465893752,
    "category": "KK Super Mart"
  },
  {
    "id": "1973",
    "code": "JBTS",
    "name": "Johor, Pusat Komersal Bayu Tasik",
    "street": "D-1-1, Blok D, Pusat Komersal Bayu Tasik, Persiaran Southkey 1, Kota Southkey.",
    "city": "Johor Bahru",
    "state": "Johor",
    "postcode": "80150",
    "phone": "+6010-8234-308",
    "latitude": 1.4947292,
    "longitude": 103.7825065,
    "category": "KK Super Mart"
  },
  {
    "id": "1416",
    "code": "JBU",
    "name": "Johor, Bandar Baru Uda",
    "street": "No.41, Jalan Padi Ria, Bandar Baru Uda",
    "city": "Johor Bahru",
    "state": "Johor",
    "postcode": "81200",
    "phone": "+6010-2308-469",
    "latitude": 1.4997345268716307,
    "longitude": 103.7177040518333,
    "category": "KK Super Mart"
  },
  {
    "id": "1410",
    "code": "JCL2",
    "name": "Jalan Tun Tan Cheng Lock (2)",
    "street": "No.27, Jalan Tun Tan Cheng Lock",
    "city": "KL City Centre",
    "state": "Kuala Lumpur",
    "postcode": "50000",
    "phone": "+6010-2308-401",
    "latitude": 3.1461789014252224,
    "longitude": 101.69836647017421,
    "category": [
      "KK Super Mart",
      "KK ATM"
    ]
  },
  {
    "id": "1573",
    "code": "JCTR",
    "name": "Johor, Taman Century",
    "street": "No.35, Jalan Serigala, Taman Century",
    "city": "Johor Bahru",
    "state": "Johor",
    "postcode": "80250",
    "phone": "+6010-2877-308",
    "latitude": 1.4861976534999035,
    "longitude": 103.76151559416185,
    "category": "KK Super Mart"
  },
  {
    "id": "1404",
    "code": "JDB",
    "name": "Johor, Danga Bay",
    "street": "No.DV02-14, Country Garden Danga Bay, Lot PTB 22056 Danga Bay, Jalan Skudai",
    "city": "Johor Bahru",
    "state": "Johor",
    "postcode": "80200",
    "phone": "+6016-2836-308",
    "latitude": 1.4653561304036513,
    "longitude": 103.726451294161,
    "category": "KK Super Mart"
  },
  {
    "id": "1791",
    "code": "JDGU",
    "name": "Johor, Pusat Perdagangan Danga Utama",
    "street": "No.22, Jalan Pertama 1, Pusat Perdagangan Danga Utama",
    "city": "Johor Bahru",
    "state": "Johor",
    "postcode": "81300",
    "phone": "+6016-2865-308",
    "latitude": 1.521730396533966,
    "longitude": 103.679329070237,
    "category": "KK Super Mart"
  },
  {
    "id": "1003",
    "code": "JFC1",
    "name": "Johor, Forest City 1",
    "street": "F-02-18D, Mahkota Selatan, Jalan Forest City 1, Pulau Satu Forest City, Johor Bahru",
    "city": "Gelang Patah",
    "state": "Johor",
    "postcode": "81550",
    "phone": "+6010-2536-308",
    "latitude": 1.3349410406975397,
    "longitude": 103.59141869970897,
    "category": [
      "KK Concept Store",
      "KK ATM"
    ]
  },
  {
    "id": "1737",
    "code": "JFC2",
    "name": "Johor, Forest City 1 (2)",
    "street": "H-02-28, Mahkota Selatan, Jalan Forest City 1, Pulau Satu, Forest City, Johor Bahru",
    "city": "Gelang Patah",
    "state": "Johor",
    "postcode": "81550",
    "phone": "+60113-1876-308",
    "latitude": 1.335831908230337,
    "longitude": 103.59122926951764,
    "category": "KK Super Mart"
  },
  {
    "id": "1772",
    "code": "JFC3",
    "name": "Johor, Forest City 5 (3)",
    "street": "P-01-41 &amp; 42, Teluk Bintang, Jalan Forest City 5, Pulau Satu, Forest City, Gelang Patah",
    "city": "Johor Bahru",
    "state": "Johor",
    "postcode": "81550",
    "phone": "+6016-2577-308",
    "latitude": 1.3417210165482647,
    "longitude": 103.59391959346988,
    "category": [
      "KK Super Mart",
      "KK ATM"
    ]
  },
  {
    "id": "1944",
    "code": "JFC4",
    "name": "Johor, Forest City 5 (4)",
    "street": "P-01-23, Laman Perkasa, Jalan Forest City 5, Pulau Satu, Forest City",
    "city": "Gelang Patah",
    "state": "Johor",
    "postcode": "81550",
    "phone": "+6016-7027-308",
    "latitude": 1.4313362,
    "longitude": 103.5784012,
    "category": "KK Super Mart"
  },
  {
    "id": "1803",
    "code": "JGLR",
    "name": "Johor, Galleria",
    "street": "GF-29, Galleria @ Kotaraya",
    "city": "Johor Bahru",
    "state": "Johor",
    "postcode": "80000",
    "phone": "+60111-6228-308",
    "latitude": 1.4590761564057317,
    "longitude": 103.7631571934697,
    "category": "KK Super Mart"
  },
  {
    "id": "1237",
    "code": "JGS",
    "name": "Jalan Gasing",
    "street": "No.113, Jalan Gasing, Seksyen 10",
    "city": "Petaling Jaya",
    "state": "Selangor",
    "postcode": "40600",
    "phone": "+6016-2973-380",
    "latitude": 3.10734098425,
    "longitude": 101.65343070951127,
    "category": "KK Super Mart"
  },
  {
    "id": "1491",
    "code": "JHK",
    "name": "Jalan Hang Kasturi",
    "street": "No.86, Jalan Hang Kasturi",
    "city": "KL City Centre",
    "state": "Kuala Lumpur",
    "postcode": "50050",
    "phone": "+6010-2615-308",
    "latitude": 3.143332776130381,
    "longitude": 101.69582696533284,
    "category": [
      "KK Super Mart",
      "KK ATM"
    ]
  },
  {
    "id": "1735",
    "code": "JIKD",
    "name": "Johor, Taman Iskandar",
    "street": "No.3, Jalan Pasir Pelangi, Taman Iskandar",
    "city": "Johor Bahru",
    "state": "Johor",
    "postcode": "80050",
    "phone": "+60113-1579-308",
    "latitude": 1.4934953030957159,
    "longitude": 103.78445059416178,
    "category": "KK Super Mart"
  },
  {
    "id": "1057",
    "code": "JIP",
    "name": "Jalan Ipoh",
    "street": "No.353, Batu 2 1/2, Jalan Ipoh",
    "city": "KL City Centre",
    "state": "Kuala Lumpur",
    "postcode": "51200",
    "phone": "+6016-3308-075",
    "latitude": 3.1776492464408492,
    "longitude": 101.68741965752355,
    "category": "KK Super Mart"
  },
  {
    "id": "1302",
    "code": "JIP2",
    "name": "Jalan Ipoh (2)",
    "street": "214, Jalan Ipoh",
    "city": "KL City Centre",
    "state": "Kuala Lumpur",
    "postcode": "51200",
    "phone": "+6016-7113-308",
    "latitude": 3.172316857126502,
    "longitude": 101.69201759416872,
    "category": "KK Super Mart"
  },
  {
    "id": "1388",
    "code": "JIP3",
    "name": "Jalan Ipoh (3)",
    "street": "No.477, Jalan Sultan Azlan Shah, Jalan Ipoh, Batu 3, Taman Million",
    "city": "KL City Centre",
    "state": "Kuala Lumpur",
    "postcode": "51200",
    "phone": "+6016-2208-369",
    "latitude": 3.181856859440317,
    "longitude": 101.68269301505177,
    "category": "KK Super Mart"
  },
  {
    "id": "1500",
    "code": "JIP4",
    "name": "Jalan Ipoh (4)",
    "street": "D-0-11, Putra Majestik, Jalan Kasipillay, Jalan Ipoh",
    "city": "KL City Centre",
    "state": "Kuala Lumpur",
    "postcode": "51200",
    "phone": "+6016-2505-308",
    "latitude": 3.1759558797593668,
    "longitude": 101.68370140667365,
    "category": "KK Super Mart"
  },
  {
    "id": "1923",
    "code": "JIP5",
    "name": "Jalan Ipoh (5)",
    "street": "No.47, Jalan Suppiah Pillay, Off Jalan Ipoh",
    "city": "KL City Centre",
    "state": "Kuala Lumpur",
    "postcode": "51200",
    "phone": "+6010-2387-308",
    "latitude": 3.146642,
    "longitude": 101.6958449,
    "category": "KK Super Mart"
  },
  {
    "id": "1555",
    "code": "JJJY",
    "name": "Johor, Taman Johor Jaya",
    "street": "No.8, Jalan Dedap 9, Taman Johor Jaya",
    "city": "Johor Bahru",
    "state": "Johor",
    "postcode": "81100",
    "phone": "+60113-6766-308",
    "latitude": 1.5410876162601697,
    "longitude": 103.80609636956541,
    "category": "KK Super Mart"
  },
  {
    "id": "1212",
    "code": "JJR2",
    "name": "Jenjarom (2)",
    "street": "M12, Jalan Besar, Sungai Jarom",
    "city": "Jenjarom",
    "state": "Selangor",
    "postcode": "42600",
    "phone": "+6016-3308-184",
    "latitude": 2.877044818687703,
    "longitude": 101.49839735183862,
    "category": "KK Super Mart"
  },
  {
    "id": "1679",
    "code": "JJR3",
    "name": "Jenjarom (3)",
    "street": "No.29, Jalan 2/1, Taman Sri Jaromas",
    "city": "Jenjarom",
    "state": "Selangor",
    "postcode": "42600",
    "phone": "+60111-6685-308",
    "latitude": 2.8750325,
    "longitude": 101.5022794,
    "category": "KK Super Mart"
  },
  {
    "id": "1076",
    "code": "JJS",
    "name": "Jinjang Selatan",
    "street": "No.15, Jalan 8/32, Taman Jinjang Baru",
    "city": "Kepong",
    "state": "Kuala Lumpur",
    "postcode": "52000",
    "phone": "+6016-3308-370",
    "latitude": 3.2085719843891947,
    "longitude": 101.65810297020616,
    "category": "KK Super Mart"
  },
  {
    "id": "1700",
    "code": "JJY2",
    "name": "Johor, Taman Johor Jaya (2)",
    "street": "No.27, Jalan Teratai 4, Taman Johor Jaya",
    "city": "Johor Bahru",
    "state": "Johor",
    "postcode": "81100",
    "phone": "+6010-3918-308",
    "latitude": 1.537500231268951,
    "longitude": 103.81091117611761,
    "category": "KK Super Mart"
  },
  {
    "id": "1714",
    "code": "JJY3",
    "name": "Johor, Taman Johor Jaya (3)",
    "street": "No.124, Jalan Bakawali 49, Taman Johor Jaya",
    "city": "Johor Bahru",
    "state": "Johor",
    "postcode": "81100",
    "phone": "+60113-1785-308",
    "latitude": 1.5428061472797518,
    "longitude": 103.7937686653263,
    "category": "KK Super Mart"
  },
  {
    "id": "1581",
    "code": "JKBT",
    "name": "Johor, Kebun Teh",
    "street": "No.21, Jalan Kebun Teh 1, Pusat Perdagangan Kebun Teh",
    "city": "Johor Bahru",
    "state": "Johor",
    "postcode": "80250",
    "phone": "+6010-8276-308",
    "latitude": 1.4863074030335401,
    "longitude": 103.75424193649046,
    "category": "KK Super Mart"
  },
  {
    "id": "1484",
    "code": "JKIP",
    "name": "Johor, Kulai, Indahpura",
    "street": "No.214, Jalan Kenanga 29/2, Bandar Indahpura, Kulai",
    "city": "Johor Bahru",
    "state": "Johor",
    "postcode": "81000",
    "phone": "+60113-1575-308",
    "latitude": 1.641724360290878,
    "longitude": 103.61859942299797,
    "category": "KK Super Mart"
  },
  {
    "id": "1519",
    "code": "JKJL",
    "name": "Johor, Kluang, Jalan Langsat",
    "street": "No.7, Jalan Langsat",
    "city": "Johor Bahru",
    "state": "Johor",
    "postcode": "86000",
    "phone": "+60115-1369-308",
    "latitude": 2.0378950351224048,
    "longitude": 103.31917615436643,
    "category": "KK Super Mart"
  },
  {
    "id": "1824",
    "code": "JKLB",
    "name": "Johor, Kluang, Jalan Lambak",
    "street": "No.51, Jalan Lambak",
    "city": "Kluang",
    "state": "Johor",
    "postcode": "86000",
    "phone": "+6016-2962-308",
    "latitude": 2.026368629021318,
    "longitude": 103.3201332223049,
    "category": "KK Super Mart"
  },
  {
    "id": "1823",
    "code": "JKPE",
    "name": "Johor, Kangkar Pulai, Pulai Emas",
    "street": "No.29, Jalan Pulai Emas 1/4, Taman Pulai Emas",
    "city": "Kangkar Pulai",
    "state": "Johor",
    "postcode": "81300",
    "phone": "+6016-2357-308",
    "latitude": 1.5693678,
    "longitude": 103.5977789,
    "category": "KK Super Mart"
  },
  {
    "id": "1927",
    "code": "JKSK",
    "name": "Johor, Kluang, Taman Sri Kluang",
    "street": "No.7, Jalan 1, Taman Sri Kluang",
    "city": "Kluang",
    "state": "Johor",
    "postcode": "86000",
    "phone": "+60111-6312-308",
    "latitude": 2.0296244,
    "longitude": 103.3014101,
    "category": "KK Super Mart"
  },
  {
    "id": "1841",
    "code": "JKSL",
    "name": "Johor, Kluang, Taman Sri Lambak",
    "street": "No.12, Jalan Lingkaran 3, Taman Sri Lambak",
    "city": "Kluang",
    "state": "Johor",
    "postcode": "86000",
    "phone": "+6016-2957-308",
    "latitude": 2.028083754072001,
    "longitude": 103.3200343215584,
    "category": "KK Super Mart"
  },
  {
    "id": "1681",
    "code": "JKTH",
    "name": "Johor, Kota Tinggi, Heritage Mall",
    "street": "No.3, Jalan Sri Warisan, Heritage Mall",
    "city": "Kota Tinggi",
    "state": "Johor",
    "postcode": "81900",
    "phone": "+60111-6725-308",
    "latitude": 1.7338277485156566,
    "longitude": 103.90481249416254,
    "category": "KK Super Mart"
  },
  {
    "id": "1952",
    "code": "JKVM",
    "name": "Johor, Pusat Komersil Visi Medini",
    "street": "S-02-1, Pusat Komersil Visi Medini, Persiaran Medini, Bandar Medini",
    "city": "Iskandar Puteri",
    "state": "Johor",
    "postcode": "79250",
    "phone": "+6010-2574-308",
    "latitude": 1.4264613,
    "longitude": 103.6073332,
    "category": "KK Super Mart"
  },
  {
    "id": "1476",
    "code": "JLKJ",
    "name": "Johor, Larkin Jaya",
    "street": "No.7, Jalan Dataran Larkin 3, Larkin Jaya",
    "city": "Johor Bahru",
    "state": "Johor",
    "postcode": "80350",
    "phone": "+60112-6157-308",
    "latitude": 1.49797663748301,
    "longitude": 103.74197808489765,
    "category": "KK Super Mart"
  },
  {
    "id": "1882",
    "code": "JMA2",
    "name": "Johor, Masai, Seri Alam (2)",
    "street": "No.21, Jalan Suria 3, Bandar Seri Alam",
    "city": "Johor Bahru",
    "state": "Johor",
    "postcode": "81750",
    "phone": "+60111-6517-308",
    "latitude": 1.4950482,
    "longitude": 103.8736295,
    "category": "KK Super Mart"
  },
  {
    "id": "1535",
    "code": "JMBB",
    "name": "Johor, Muar, Bukit Bakri",
    "street": "No.75, Jalan Besar Bukit Bakri",
    "city": "Muar",
    "state": "Johor",
    "postcode": "84200",
    "phone": "+6016-3308-411",
    "latitude": 2.042908820016941,
    "longitude": 102.65637635436809,
    "category": [
      "KK Super Mart",
      "KK ATM"
    ]
  },
  {
    "id": "1712",
    "code": "JMDM",
    "name": "Johor, Muar, Taman Damai",
    "street": "No.22, Jalan Damai 12, Taman Damai",
    "city": "Muar",
    "state": "Johor",
    "postcode": "84000",
    "phone": "+60112-6876-308",
    "latitude": 2.0653261571236916,
    "longitude": 102.60073985183504,
    "category": "KK Super Mart"
  },
  {
    "id": "1179",
    "code": "JMH",
    "name": "Jalan Maharajalela",
    "street": "No.147, Jalan Maharajalela",
    "city": "KL City Centre",
    "state": "Kuala Lumpur",
    "postcode": "50150",
    "phone": "+6016-3308-346",
    "latitude": 3.144854013373027,
    "longitude": 101.70204527392502,
    "category": "KK Super Mart"
  },
  {
    "id": "1386",
    "code": "JMM",
    "name": "Johor, Taman Mutiara Mas",
    "street": "No.4, Jalan Mutiara 1/1, Taman Mutiara Mas, Skudai",
    "city": "Johor Bahru",
    "state": "Johor",
    "postcode": "81300",
    "phone": "+6016-2208-772",
    "latitude": 1.521854246593923,
    "longitude": 103.63259524082873,
    "category": "KK Super Mart"
  },
  {
    "id": "1552",
    "code": "JMMH",
    "name": "Johor, Muar, Jalan Maharani",
    "street": "No.113 &amp; 114, Jalan Maharani",
    "city": "Muar",
    "state": "Johor",
    "postcode": "84000",
    "phone": "+60113-6727-308",
    "latitude": 2.0651116612643707,
    "longitude": 102.56977159068627,
    "category": "KK Super Mart"
  },
  {
    "id": "1529",
    "code": "JMMR",
    "name": "Johor, Masai, Megah Ria",
    "street": "No.31, Jalan Kempas 16, Taman Megah Ria",
    "city": "Johor Bahru",
    "state": "Johor",
    "postcode": "81750",
    "phone": "+60112-6187-308",
    "latitude": 1.4916547405271567,
    "longitude": 103.84896398489613,
    "category": [
      "KK Super Mart",
      "KK ATM"
    ]
  },
  {
    "id": "1817",
    "code": "JMPC",
    "name": "Johor, Muar, Jalan Panchor",
    "street": "No.52, Lot Kedai (Traffic Light) Pekan, Jalan Panchor",
    "city": "Muar",
    "state": "Johor",
    "postcode": "84300",
    "phone": "+6010-8258-308",
    "latitude": 2.0982518039008333,
    "longitude": 102.63687542230494,
    "category": "KK Super Mart"
  },
  {
    "id": "1713",
    "code": "JMPJ",
    "name": "Johor, Muar, Pagoh Jaya",
    "street": "No.29, Jalan Pagoh Jaya 1, Pusat Perniagaan Pagoh Jaya, Pagoh",
    "city": "Muar",
    "state": "Johor",
    "postcode": "84500",
    "phone": "+60113-1204-308",
    "latitude": 2.1310110690189883,
    "longitude": 102.71568113649248,
    "category": "KK Super Mart"
  },
  {
    "id": "1126",
    "code": "JMS",
    "name": "Jalan Meru Setia",
    "street": "No.11, Jalan Meru Setia 1, Taman Sri Saujana, Off Persiaran Hamzah Alang",
    "city": "Klang",
    "state": "Selangor",
    "postcode": "42200",
    "phone": "+6016-3308-004",
    "latitude": 3.1361548032977513,
    "longitude": 101.41887329416856,
    "category": [
      "KK Super Mart",
      "KK ATM"
    ]
  },
  {
    "id": "1809",
    "code": "JMSA",
    "name": "Johor, Masai, Seri Alam",
    "street": "No.50, Jalan Lembah 19, Bandar Seri Alam, Masai",
    "city": "Johor Bahru",
    "state": "Johor",
    "postcode": "81750",
    "phone": "+6010-2938-308",
    "latitude": 1.5092055510066786,
    "longitude": 103.86690076463398,
    "category": "KK Super Mart"
  },
  {
    "id": "1655",
    "code": "JMSP",
    "name": "Johor, Masai, Sierra Perdana",
    "street": "No.41 Jalan Sierra Perdana 2/1, Taman Sierra Perdana 1, Masai",
    "city": "Johor Bahru",
    "state": "Johor",
    "postcode": "81750",
    "phone": "+6010-3615-308",
    "latitude": 1.4808720278055512,
    "longitude": 103.86894712114756,
    "category": [
      "KK Super Mart",
      "KK ATM"
    ]
  },
  {
    "id": "1933",
    "code": "JMT",
    "name": "Jalan Medan Tuanku",
    "street": "No. 5, Jalan Medan Tuanku",
    "city": "Chow Kit",
    "state": "Kuala Lumpur",
    "postcode": "50300",
    "phone": "+6010-2505-308",
    "latitude": 3.158376,
    "longitude": 101.6965451,
    "category": "KK Super Mart"
  },
  {
    "id": "1507",
    "code": "JMTA",
    "name": "Johor, Taman Mount Austin",
    "street": "No.56, Jalan Austin Heights 8/7, Taman Mount Austin",
    "city": "Johor Bahru",
    "state": "Johor",
    "postcode": "81100",
    "phone": "+60111-6278-308",
    "latitude": 1.5634763952655157,
    "longitude": 103.77889105183351,
    "category": [
      "KK Super Mart",
      "KK ATM"
    ]
  },
  {
    "id": "1634",
    "code": "JNJM",
    "name": "Johor, Taman Nusa Jaya Mas",
    "street": "No.4, PTD 130074, Jalan NB2 1/4, Taman Nusa Jaya Mas",
    "city": "Nusajaya",
    "state": "Johor",
    "postcode": "79150",
    "phone": "+60113-3159-308",
    "latitude": 1.500029702322142,
    "longitude": 103.65025992299766,
    "category": "KK Super Mart"
  },
  {
    "id": "1378",
    "code": "JNS",
    "name": "Johor, Taman Nusantara",
    "street": "No.20, Jalan Nusaria 11/7, Taman Nusantara, Gelang Patah",
    "city": "Johor Bahru",
    "state": "Johor",
    "postcode": "81550",
    "phone": "+6016-2208-213",
    "latitude": 1.459004732482256,
    "longitude": 103.58446793649038,
    "category": "KK Super Mart"
  },
  {
    "id": "1514",
    "code": "JNSP",
    "name": "Johor, Taman Nusa Perintis",
    "street": "No.21, Jalan Medan Nusa Perintis 7, Taman Nusa Perintis 2",
    "city": "Johor Bahru",
    "state": "Johor",
    "postcode": "81550",
    "phone": "+60112-6133-308",
    "latitude": 1.4508365100243945,
    "longitude": 103.59551274836636,
    "category": "KK Super Mart"
  },
  {
    "id": "1298",
    "code": "JPD",
    "name": "Jalan Pudu",
    "street": "No.22, Jalan Pudu, City Centre",
    "city": "Pudu",
    "state": "Kuala Lumpur",
    "postcode": "55100",
    "phone": "+6016-4083-308",
    "latitude": 3.146390013432457,
    "longitude": 101.70083678067579,
    "category": "KK Super Mart"
  },
  {
    "id": "1360",
    "code": "JPD2",
    "name": "Jalan Pudu (2)",
    "street": "No.504, Jalan Pudu",
    "city": "Pudu",
    "state": "Kuala Lumpur",
    "postcode": "55100",
    "phone": "+6010-2308-829",
    "latitude": 3.141824053219274,
    "longitude": 101.71488361879115,
    "category": "KK Super Mart"
  },
  {
    "id": "1475",
    "code": "JPD3",
    "name": "Jalan Pudu (3)",
    "street": "No.116, Jalan Pudu",
    "city": "Bukit Bintang",
    "state": "Kuala Lumpur",
    "postcode": "55100",
    "phone": "+60111-6279-308",
    "latitude": 3.148690058647017,
    "longitude": 101.70599305904298,
    "category": [
      "KK Super Mart",
      "KK ATM"
    ]
  },
  {
    "id": "1499",
    "code": "JPD4",
    "name": "Jalan Pudu (4)",
    "street": "No.15, Jalan Sungai Besi",
    "city": "Pudu",
    "state": "Kuala Lumpur",
    "postcode": "57100",
    "phone": "+6016-2536-308",
    "latitude": 3.131705789528663,
    "longitude": 101.71219814203748,
    "category": "KK Super Mart"
  },
  {
    "id": "1389",
    "code": "JPG",
    "name": "Johor, Pasir Gudang",
    "street": "No.23, Jalan Sejambak 14, Taman Bukit Dahlia, Pasir Gudang",
    "city": "Johor Bahru",
    "state": "Johor",
    "postcode": "81700",
    "phone": "+6016-3308-534",
    "latitude": 1.4802667436454067,
    "longitude": 103.89511869883577,
    "category": "KK Super Mart"
  },
  {
    "id": "1183",
    "code": "JPH",
    "name": "Jalan Pahang",
    "street": "No.126, Jalan Pahang, Gombak",
    "city": "Setapak",
    "state": "Kuala Lumpur",
    "postcode": "53000",
    "phone": "+6016-3308-361",
    "latitude": 3.172650835462711,
    "longitude": 101.69879752869018,
    "category": "KK Super Mart"
  },
  {
    "id": "1314",
    "code": "JPH2",
    "name": "Jalan Pahang (2)",
    "street": "No.190, Jalan Pahang, (Caltex Station)",
    "city": "Setapak",
    "state": "Kuala Lumpur",
    "postcode": "53000",
    "phone": "+6010-3673-308",
    "latitude": 3.177470870308067,
    "longitude": 101.69973477019013,
    "category": "KK Super Mart"
  },
  {
    "id": "1934",
    "code": "JPJ2",
    "name": "Johor, Permas Jaya (2)",
    "street": "No.29, Jalan Permas 9/5, Bandar Baru Permas Jaya",
    "city": "Masai",
    "state": "Johor",
    "postcode": "81750",
    "phone": "+6010-3725-308",
    "latitude": 1.49854,
    "longitude": 103.819575,
    "category": "KK Super Mart"
  },
  {
    "id": "1949",
    "code": "JPJ3",
    "name": "Johor, Permas Jaya (3)",
    "street": "No.17, Jalan Permas 11, Bandar Baru Permas Jaya",
    "city": "Masai",
    "state": "Johor",
    "postcode": "81750",
    "phone": "+6010-7698-308",
    "latitude": 1.4977396,
    "longitude": 103.8119215,
    "category": "KK Super Mart"
  },
  {
    "id": "1804",
    "code": "JPJT",
    "name": "Johor, Pontian, Jalan Taib",
    "street": "No.688-A, Jalan Taib",
    "city": "Pontian",
    "state": "Johor",
    "postcode": "82000",
    "phone": "+60111-6217-308",
    "latitude": 1.487494034926954,
    "longitude": 103.39068925182197,
    "category": "KK Super Mart"
  },
  {
    "id": "1458",
    "code": "JPJY",
    "name": "Johor, Permas Jaya",
    "street": "No.42, Jalan Permas 10, Bandar Baru Permas Jaya, Masai",
    "city": "Johor Bahru",
    "state": "Johor",
    "postcode": "81750",
    "phone": "+6010-3635-308",
    "latitude": 1.497898638920834,
    "longitude": 103.81553338489762,
    "category": "KK Super Mart"
  },
  {
    "id": "1837",
    "code": "JPKM",
    "name": "Johor, Pasir Gudang, Taman Kota Masai",
    "street": "No.91, Jalan Mangga 1, Taman Kota Masai",
    "city": "Pasir Gudang",
    "state": "Johor",
    "postcode": "81700",
    "phone": "+6010-8267-308",
    "latitude": 1.4842645537154613,
    "longitude": 103.94602099346966,
    "category": "KK Super Mart"
  },
  {
    "id": "1620",
    "code": "JPN2",
    "name": "Johor, Pekan Nenas (2)",
    "street": "No.109, Jalan Industri 8, Taman Perindustrian Pekan Nenas",
    "city": "Pekan Nenas",
    "state": "Johor",
    "postcode": "81500",
    "phone": "+6010-2617-308",
    "latitude": 1.4959503272643946,
    "longitude": 103.52542469416186,
    "category": "KK Super Mart"
  },